Year_Month,Year,Month,Site,Type,Easting,Northing,Longitude,Latitude,NO2_NA_no,NO2,PM10_NA_no,PM10,PM25_NA_no,PM25,NO2_modelled,PM10_modelled,PM25_modelled,Hurs,Psl,Rainfall,SfcWind,Sun,Tas,NDVI,UR,Temp_Trend,logNO2,logPM10,logPM25,Split1,Split2,Split3,Split4,Split5,Split6,Split7,Split8,Split9,Split10,PopDen,nearest_road_distance
2016-01,2016,1,Aberdeen Anderson Dr,Roadside,392504.39,804189.75,-2.125446985,57.12856696,11,24.1,0,14.01290323,31,,15.96019,10.55266,6.172001,83.43176565,1001.963221,180.1136866,6.324590906,42.64925117,4.115653503,0.40984304,Large Urban Areas,1,3.18221184,2.639978564,,test,train4,test,train9,train7,train5,train8,test,train3,test,0.005123445,14.49298793
2016-01,2016,1,Aberdeen Errol Place,Rest,394395.8,807391.98,-2.094278044,57.15736002,0,28.69677419,4,15.42962963,4,5.955555556,19.87877,10.31663,5.94299,83.17164138,1001.960544,193.3505846,6.52517504,43.58768956,4.429327431,0.15211769,Large Urban Areas,1,3.356784719,2.736289663,1.784324491,train9,train6,train2,train9,train2,train10,train8,train2,test,test,0.006877316,76.62294631
2016-01,2016,1,Aberdeen King Street,Roadside,394333,808770,-2.095348117,57.16973795,0,29.52580645,2,19.31034483,31,,17.38135,10.17115,5.806363,83.3526005,1001.956267,201.8079444,6.376854728,43.93963391,4.460723965,0.48812968,Large Urban Areas,1,3.385264676,2.960640954,,train9,train7,train8,train3,train10,train5,train10,train4,test,train9,0.003926085,9.599338545
2016-01,2016,1,Aberdeen Market Street 2,Roadside,394551.62,805673.18,-2.091663919,57.14192196,6,39.504,6,12.716,6,8.112,31.23656,11.62385,6.849536,83.34638163,1001.968257,169.9746538,6.547142909,43.64020562,4.443591439,0.174227,Large Urban Areas,1,3.676401933,2.542861043,2.093344447,train10,train6,train5,test,test,train2,train8,test,train1,test,0.003730111,7.363513475
2016-01,2016,1,Aberdeen Union Street Roadside,Roadside,393655.92,805967.6,-2.106472003,57.14455502,0,48.90322581,12,17.16842105,13,11.73333333,22.30283,10.77242,6.308893,83.29314753,1001.964863,179.3200234,6.3672019,43.15994789,4.279913537,0.22602874,Large Urban Areas,1,3.889843362,2.843071711,2.462433794,train2,train1,train4,train2,train9,train8,test,train4,test,train8,0.008052278,13.61053035
2016-01,2016,1,Aberdeen Wellington Road,Roadside,394410.99,804813.2,-2.093968047,57.13419503,0,40.53548387,1,17.58333333,31,,20.35855,10.55765,6.170999,83.5146843,1001.96974,171.6219312,6.930142164,43.50166143,4.324854221,0.23063854,Large Urban Areas,1,3.702177735,2.866951484,,train1,train10,test,train7,train8,train9,train5,test,train9,train10,0.004007295,9.754705711
2016-01,2016,1,Alloa A907,Roadside,288689,693068,-3.791820157,56.11733979,0,32.93548387,0,12.68064516,31,,15.5629,10.26566,6.215875,89.00904306,1001.979484,187.3776162,4.68404036,14.6167974,4.251101116,0.44572512,Other Urban Areas,1,3.494550614,2.540076828,,train3,train3,train4,train10,train4,train10,train1,test,test,train3,0.003703423,2.820852372
2016-01,2016,1,Bush Estate,Rest,324629.04,663890.62,-3.205782065,55.862281,0,10.60967742,31,,31,,8.075246,9.222131,5.575827,88.22714691,1002.017884,185.2105858,4.772712471,28.93202985,3.850707278,0.5457822,Rural Areas,1,2.361766549,,,train5,test,train2,train7,test,train3,train3,train9,train9,train6,4.20E-05,67.55410485
2016-01,2016,1,Dumfries,Roadside,297019.53,576254.03,-3.614233057,55.070033,0,33.26774194,31,,31,,11.57991,9.023594,5.621769,89.32437635,1002.632392,297.2827053,3.586997481,24.19304204,5.013277298,0.6060138,Rural Areas,1,3.504588217,,,train9,train4,train9,train2,train2,train10,train6,train9,train7,train10,0.001794662,7.734609493
2016-01,2016,1,Dundee Broughty Ferry Road,Industrial,341970.73,730976.51,-2.943422928,56.46733201,8,28.56086957,3,12.275,31,,11.93455,9.713922,5.633138,87.66227826,1001.945467,155.2495373,4.744007175,26.17767228,4.542697795,0.20891886,Rural Areas,1,3.352037584,2.507564674,,train7,train1,train8,train1,train8,train7,train8,train2,train6,test,0.003567147,11.47388376
2016-01,2016,1,Dundee Lochee Road,Kerbside,338859.24,730774.79,-2.993867031,56.465126,0,49.69354839,0,20.12258065,31,,11.9917,9.910512,5.906315,87.76547671,1001.938231,187.7542447,5.188191514,24.31400677,4.024776192,0.22149992,Rural Areas,1,3.905875114,3.0018426,,train6,train1,train1,train3,test,test,test,train1,train2,train6,0.006963361,3.659449659
2016-01,2016,1,Dundee Mains Loan,Rest,340970.55,731892.31,-2.959861021,56.47543397,0,16.67096774,0,10.39354839,31,,14.51074,10.19106,6.031661,87.66178867,1001.940542,175.1016459,5.318781208,25.25200258,4.176233255,0.26281698,Rural Areas,1,2.813668748,2.341185266,,train1,train1,test,train7,test,train7,train10,train8,train10,train4,0.006828352,215.8970495
2016-01,2016,1,Dundee Meadowside,Roadside,340243.04,730658.37,-2.97138605,56.46425799,0,36.22258065,0,15.17096774,31,,18.79951,10.57289,6.049148,87.6705362,1001.942755,161.6788087,4.727798688,25.42843783,4.466938233,0.1689277,Rural Areas,1,3.589682699,2.719383584,,train3,test,train10,train1,train3,train1,train3,train3,test,test,0.005197924,5.225675715
2016-01,2016,1,Dundee Seagate,Kerbside,340486.33,730446.2,-2.967389911,56.46238296,0,49.59354839,0,17.21290323,31,,18.79951,10.57289,6.049148,87.6705362,1001.942755,161.6788087,4.727798688,25.42843783,4.466938233,0.080141435,Rural Areas,1,3.903860752,2.84565929,,train5,train2,train4,train7,train5,train4,train3,train5,test,train5,0.005197924,6.829277012
2016-01,2016,1,Dundee Union Street,Roadside,340234.85,730091.73,-2.971388965,56.45916699,26,10.42,31,,31,,18.79951,10.57289,6.049148,87.6705362,1001.942755,161.6788087,4.727798688,25.42843783,4.466938233,0.074757315,Rural Areas,1,2.343727036,,,train1,test,train8,train6,test,train9,train1,train2,train2,train9,0.005197924,33.04760881
2016-01,2016,1,Dundee Whitehall Street,Roadside,340277.72,730154.91,-2.970707922,56.45973996,0,39.63225806,31,,31,,18.79951,10.57289,6.049148,87.6705362,1001.942755,161.6788087,4.727798688,25.42843783,4.466938233,0.080141435,Rural Areas,1,3.679643384,,,train2,test,train9,train1,train3,train3,train8,test,train5,train2,0.005197924,72.37791012
2016-01,2016,1,E Ayrshire Kilmarnock St Marnock St,Roadside,242742,637705,-4.497991768,55.60746529,4,28.89259259,7,11.90416667,31,,13.07946,9.542433,5.984146,86.76635121,1001.679579,168.2106966,4.143029803,15.11457168,5.144582309,0.44860732,Other Urban Areas,1,3.363585251,2.476888479,,train7,train5,test,test,train10,train1,train5,train9,test,test,0.002772406,8.746726285
2016-01,2016,1,East Dunbartonshire Bearsden,Roadside,254271.48,672072.75,-4.333505014,55.91959602,0,52.26451613,0,10.88709677,31,,13.19853,9.554876,5.979587,89.48995802,1001.830309,180.9763034,4.834553902,26.03815062,4.352733797,0.5177276,Rural Areas,1,3.956317673,2.387578306,,train1,train10,train4,train7,train4,train9,train10,train10,train2,train3,0.002942088,9.571084396
2016-01,2016,1,East Dunbartonshire Bishopbriggs,Roadside,260995.7,670132.48,-4.225000046,55.90416698,0,36.62903226,0,12.67096774,31,,14.47907,9.95733,6.20464,89.19987192,1001.918155,164.2739166,4.709785607,23.50745105,4.202160867,0.47782416,Rural Areas,1,3.600841157,2.539313372,,train8,train4,test,test,train10,train6,train6,train4,train1,test,0.002766871,9.929695603
2016-01,2016,1,East Dunbartonshire Kirkintilloch,Roadside,265683.75,673520.86,-4.151758928,55.93592099,0,33.69032258,0,11.97419355,31,,13.29463,9.749344,5.927018,89.50595721,1001.91575,160.4368011,4.484390909,22.46940253,4.060348109,0.40728208,Rural Areas,1,3.517210632,2.482753796,,train7,train9,train6,train9,train5,train9,train2,train9,train5,train4,0.003028591,9.422364395
2016-01,2016,1,East Dunbartonshire Milngavie,Roadside,255325.27,674115.52,-4.317753008,55.93825301,0,27.0483871,0,11.51612903,31,,11.8361,9.162085,5.715908,89.98004768,1001.822055,185.3139618,4.394596763,26.66707672,4.364705238,0.47837172,Rural Areas,1,3.297627377,2.443748577,,train2,train6,train6,train5,train1,train4,train4,train2,train1,train5,0.00274991,9.562910204
2016-01,2016,1,East Lothian Musselburgh N High St,Roadside,333941,672836,-3.059222799,55.9440076,0,29.29354839,4,10.92592593,31,,15.34216,11.44618,6.71564,88.05236804,1002.032397,93.27434701,5.548480916,30.13258927,5.064655143,0.35823964,Large Urban Areas,1,3.3773673,2.39113849,,train6,train1,train3,train5,test,train1,test,train6,train1,train1,0.004932163,11.03844802
2016-01,2016,1,Edinburgh Currie,Rest,317575.4,667874.3,-3.319660353,55.89690865,3,12.66785714,0,8.777419355,31,,10.74471,10.57791,6.132316,87.74507255,1001.927263,157.9988949,4.825919145,29.08090557,3.870798926,0.44644896,Large Urban Areas,1,2.539067852,2.172182441,,train3,test,train1,test,test,train6,test,train3,train8,test,0.002462852,367.6985473
2016-01,2016,1,Edinburgh Glasgow Road,Roadside,313101,672651,-3.392727136,55.9390261,0,34.46129032,0,12.11935484,31,,20.34748,11.68402,6.429578,87.17738369,1001.878971,145.7046531,4.346064158,30.5131126,4.406738885,0.4972868,Rural Areas,1,3.539836674,2.494803748,,train4,train5,train8,train4,train5,train1,test,train7,train8,train6,0.000108079,7.179777766
2016-01,2016,1,Edinburgh Gorgie Road,Roadside,323121,672314,-3.232267016,55.93770769,1,43.76,31,,31,,22.76692,12.34375,7.023488,85.78904485,1001.943506,126.8464326,5.533044489,30.05046166,4.972406728,0.06847025,Large Urban Areas,1,3.778720158,,,train2,test,train5,train8,train8,train3,train4,train3,train1,test,0.012584093,13.05821225
2016-01,2016,1,Edinburgh Nicolson Street,Roadside,326150,673046,-3.183990832,55.94475855,31,,31,,31,,22.07976,11.02488,6.58188,86.01974096,1001.964421,119.898918,6.096928257,30.31584862,5.011209015,0.35574548,Large Urban Areas,1,,,,train4,test,train2,train5,train5,train8,train5,train1,train10,train3,0.007336469,7.022324952
2016-01,2016,1,Edinburgh Queen Street,Roadside,324825.48,674079.54,-3.205481028,55.953837,1,32.94666667,2,11.02758621,31,,21.32914,11.30533,6.816098,85.88910479,1001.94272,122.0125389,5.997430519,30.56544007,4.937930101,0.16110267,Rural Areas,1,3.494890092,2.40039997,,train6,train8,train4,train5,train4,train1,test,test,train9,train1,0.008975768,15.17135145
2016-01,2016,1,Edinburgh Queensferry Road,Roadside,318734.92,674931.5,-3.303249928,55.96049697,0,48.78387097,0,15.58387097,31,,15.46728,11.37644,6.640375,86.39813525,1001.899401,132.3699483,5.42720434,30.74981306,4.693712114,0.62613112,Rural Areas,1,3.887399745,2.746236467,,train4,train8,train8,test,train3,train1,train2,train6,train8,train5,0.003790773,8.259895052
2016-01,2016,1,Edinburgh Salamander St,Roadside,327613.24,676342.55,-3.161455035,55.97459399,0,28.99354839,0,12.90967742,31,,16.93968,11.93011,6.629832,86.64978259,1001.961538,107.8215307,6.796987604,31.09251995,5.205667823,0.247544,Rural Areas,1,3.367073336,2.557977218,,train9,train10,test,test,train5,train8,train2,test,train3,train2,0.005556022,7.082331756
2016-01,2016,1,Edinburgh St John's Road,Kerbside,320079.88,672902.79,-3.281110919,55.9425,0,55.38387097,31,,31,,17.72256,11.24137,6.725598,86.08920005,1001.919707,126.6184948,5.072288803,30.10877782,4.751393854,0.31348282,Rural Areas,1,4.014288414,,,train3,train4,train5,train10,train4,train10,train3,test,train7,train8,0.004367238,14.36624253
2016-01,2016,1,Edinburgh St Leonards,Rest,326264.3,673136.49,-3.18218598,55.94558898,31,,4,10.11111111,5,6.530769231,22.07976,11.02488,6.58188,86.01974096,1001.964421,119.898918,6.096928257,30.31584862,5.011209015,0.35574548,Rural Areas,1,,2.313634929,1.876524736,train1,train2,train10,train6,train8,test,test,train5,train3,train10,0.007336469,44.11561169
2016-01,2016,1,Eskdalemuir,Rest,323550.97,603021.74,-3.206110971,55.31530997,0,3.558064516,31,,31,,2.191195,7.922523,5.111669,91.75235773,1003.126776,362.0302174,4.333559762,17.62777756,3.087171405,0.73093976,Rural Areas,1,1.269216722,,,train8,train7,test,train10,test,test,train3,train2,train7,train8,1.60E-06,233.9918751
2016-01,2016,1,Falkirk Grangemouth MC,Rest,292818.05,682006.92,-3.721013031,56.01895095,10,32.96190476,4,12.14814815,31,,11.36934,10.3494,5.952175,87.88140008,1001.899776,166.9197682,4.83879919,19.65070377,4.840976397,0.38005268,Rural Areas,1,3.495352493,2.497176742,,train9,train3,train3,test,test,test,test,train1,train9,train9,0.000494242,43.16050621
2016-01,2016,1,Falkirk Haggs,Roadside,278977,679271,-3.941685363,55.99108677,0,37.49032258,0,13.05806452,31,,14.65693,11.06707,6.076895,89.13314414,1001.913599,209.1535333,4.550817741,20.47689237,3.631847818,0.7415616,Other Urban Areas,1,3.624082835,2.569405913,,test,test,train10,train10,train10,train8,train10,train10,train2,train2,0.001141593,6.344912512
2016-01,2016,1,Falkirk Hope St,Roadside,288688.39,680219.33,-3.78648491,56.00195595,0,25.42580645,31,,31,,15.57374,10.4761,6.359032,88.28817023,1001.915255,181.8209282,4.648882655,20.11525255,4.479753089,0.52327612,Rural Areas,1,3.23576466,,,test,train5,train3,train3,train4,train8,train8,train4,test,train1,0.00230096,9.767545758
2016-01,2016,1,Falkirk Main St Bainsford,Roadside,288563.7,681516.1,-3.789021528,56.01357234,17,28.67857143,17,12.27857143,31,,14.38369,10.53836,6.426398,88.32486306,1001.916525,180.5097336,4.62750598,19.87290642,4.485298558,0.54983444,Other Urban Areas,1,3.356150204,2.507855583,,train5,train8,train1,train10,train9,train8,test,train2,train1,train6,0.003891477,7.609453912
2016-01,2016,1,Falkirk West Bridge Street,Roadside,288457,680064,-3.790128751,56.00050725,0,46.39677419,0,13.82903226,31,,15.57374,10.4761,6.359032,88.28817023,1001.915255,181.8209282,4.648882655,20.11525255,4.479753089,0.52327612,Other Urban Areas,1,3.837229935,2.626770169,,test,train4,test,train9,train2,train5,train5,train1,train10,train4,0.00230096,7.354256285
2016-01,2016,1,Fife Cupar,Roadside,337369.34,714578.52,-3.014167029,56.31944401,0,32.80645161,4,15.93333333,31,,7.778882,10.49256,6.004348,89.42957246,1002.012947,161.3213348,4.153426241,27.11624463,3.916039376,0.36398896,Rural Areas,1,3.490625192,2.768413351,,train7,train10,train6,train2,train8,test,train6,train4,train10,train10,0.003053321,6.010415946
2016-01,2016,1,Fife Dunfermline,Roadside,309924.49,687724.72,-3.448620052,56.07383003,0,26.88709677,0,13.99677419,31,,13.12197,10.66972,6.090469,87.70529347,1001.876931,166.870372,6.177679621,17.54045345,4.127812532,0.91831904,Rural Areas,1,3.291646498,2.638826888,,test,train7,test,train1,train9,train5,test,test,test,test,0.002810611,11.15464231
2016-01,2016,1,Fife Kirkcaldy,Roadside,329143.57,692986.35,-3.141347009,56.12433096,0,20.61290323,0,12.26129032,31,,9.710244,8.896281,5.402284,88.24885371,1001.989784,136.184028,6.674949298,25.71247015,4.71459479,0.25535228,Rural Areas,1,3.02591725,2.506447172,,train10,train2,train6,train4,train2,train6,train1,test,train10,train9,0.002052568,11.68128734
2016-01,2016,1,Fife Rosyth,Roadside,311770.51,683501.59,-3.417582065,56.03624296,7,37.27916667,0,10.15483871,0,6.270967742,15.33473,11.20072,6.564666,87.21756095,1001.85854,125.8592058,5.796271832,25.3187962,4.660831004,0.48894388,Rural Areas,1,3.618434636,2.317950312,1.835930688,train4,train3,train4,train1,train7,train2,train9,train6,train6,train5,0.003752911,10.58146139
2016-01,2016,1,Fort William,Rest,210849.73,774418.72,-5.101101946,56.82265998,0,17.01935484,31,,31,,3.747717,7.393681,4.461241,83.5469754,1001.718588,334.2869474,1.140528711,9.011683375,4.768428794,0.16038442,Rural Areas,1,2.834351216,,,test,train7,train4,train6,train10,test,train5,test,train6,train3,0.000779062,191.0125739
2016-01,2016,1,Glasgow Anderston,Rest,257940.81,665497.95,-4.271388994,55.86166699,22,13.78888889,27,14.475,31,,28.29642,12.54195,6.908516,87.7935254,1001.936373,158.2977393,4.262608133,23.81868956,5.516396784,0.19244136,Rural Areas,1,2.623863115,2.672423023,,train3,train5,train7,train9,train6,train9,train1,train8,train8,test,0.00708588,46.64159378
2016-01,2016,1,Glasgow Burgher St,Roadside,262549.48,664168.91,-4.197139912,55.85107102,0,39.38064516,5,16.44230769,31,,17.21428,10.19723,6.201643,87.62568147,1001.979694,175.7254665,3.887742953,22.66169969,5.035677215,0.4157532,Rural Areas,1,3.673274456,2.79985775,,train2,train3,train1,train8,train4,train10,train1,train8,train2,train1,0.002918921,8.538160264
2016-01,2016,1,Glasgow Byres Road,Roadside,256526.91,666936.95,-4.294722015,55.874167,0,48.7516129,0,10.13225806,31,,21.67176,10.25663,6.174359,87.98347107,1001.916863,160.7654667,4.348631672,24.06345161,5.259416273,0.30483074,Rural Areas,1,3.886738282,2.315724202,,train1,train2,train3,train8,train7,train6,train2,train9,train4,train3,0.008033421,9.448460622
2016-01,2016,1,Glasgow Dumbarton Road,Roadside,255030,666608,-4.31844935,55.8707657,0,53.76774194,0,14.30645161,31,,22.02779,10.69954,6.379338,88.01875979,1001.900616,164.6285049,4.260014019,24.24040647,5.126033703,0.36103076,Large Urban Areas,1,3.984673695,2.660710597,,test,train6,train6,train7,train4,test,train7,train5,train6,train2,0.010215927,9.621623143
2016-01,2016,1,Glasgow Great Western Road,Roadside,258007,666651,-4.270936625,55.87203836,0,38.01612903,31,,31,,27.48459,12.29878,6.844817,87.89949188,1001.940175,161.0063892,4.336403125,23.65822802,5.394952762,0.52584532,Large Urban Areas,1,3.638010518,,,train4,test,train10,train10,test,train7,train1,train1,test,test,0.007522473,15.37028264
2016-01,2016,1,Glasgow High Street,Roadside,260014.1,665348.9,-4.23821368,55.86093551,12,37.95263158,0,12.15483871,0,8.758064516,27.48627,12.08232,6.826867,87.6794532,1001.964093,178.4552006,4.345121921,23.08574979,5.16695265,0.25763374,Large Urban Areas,1,3.636338845,2.497727338,2.169974935,test,train3,train5,train8,train6,train4,train6,test,test,train2,0.005010073,13.7337869
2016-01,2016,1,Glasgow Kerbside,Kerbside,258713.92,665194.51,-4.258888922,55.85917001,1,65.41,31,,31,,31.71115,11.73638,6.829536,87.74383047,1001.947179,157.0151234,4.392469901,23.55751845,5.469500569,0.10626608,Rural Areas,1,4.180675152,,,test,train5,train2,train3,train10,train2,test,train4,train6,train7,0.003820828,286.6771733
2016-01,2016,1,Glasgow Nithsdale Road,Roadside,257886.88,662669.31,-4.270767942,55.83625604,31,,2,13.15172414,31,,18.30284,10.08283,6.141131,87.82326119,1001.946994,158.9950176,4.008204837,23.86792182,4.854575069,0.34386424,Rural Areas,1,,2.576552863,,test,train8,test,train5,train8,test,train7,train7,train3,train8,0.007081626,9.431613068
2016-01,2016,1,Glasgow Townhead,Rest,259692.6,665899.13,-4.24363094,55.86578198,0,31.97096774,5,10.48846154,5,6.811538462,25.42956,10.5857,6.348083,87.72956739,1001.956441,171.6261843,4.304254806,23.38173729,5.406482831,0.25763374,Rural Areas,1,3.464828233,2.350275752,1.918618007,train6,test,test,test,train7,train3,test,train4,train4,train9,0.00823493,286.2007658
2016-01,2016,1,Glasgow Waulkmillglen Reservoir,Rest,252455.25,658157.36,-4.354967932,55.79412004,3,21.58928571,0,9.7,31,,9.787962,8.898339,5.479627,89.15402442,1001.894385,222.2084335,4.013622157,25.09301038,4.452765474,0.57556108,Rural Areas,1,3.07219716,2.272125886,,train4,train2,test,train1,test,train4,train7,train1,train7,train3,0.000584924,703.3625679
2016-01,2016,1,Grangemouth,Industrial,293829.88,681020.65,-3.704398944,56.01031895,0,22.71935484,0,10.56129032,5,9.780769231,16.20508,10.28637,6.357592,87.86775022,1001.894002,168.3227809,4.918229685,20.30496856,4.852714979,0.54183316,Rural Areas,1,3.123217197,2.35719546,2.280418134,test,test,train10,train3,train9,train3,train2,train7,train7,train1,0.002763145,276.6920559
2016-01,2016,1,Grangemouth Moray,Rest,293436.55,681344.72,-3.710832922,56.01314198,0,24.26451613,31,,31,,16.20508,10.28637,6.357592,87.86775022,1001.894002,168.3227809,4.918229685,20.30496856,4.852714979,0.54183316,Rural Areas,1,3.189015042,,,train6,train7,train9,train2,train1,train4,train9,test,train5,train5,0.002763145,58.50815374
2016-01,2016,1,Inverclyde Greenock A8,Roadside,229331.5,675714.7,-4.73442097,55.94407866,0,34.33225806,0,12.86774194,31,,11.61316,8.545309,5.226347,86.36093295,1001.451808,232.381209,6.249550155,22.99577464,5.047080813,0.29859116,Other Urban Areas,1,3.536085381,2.554723554,,test,train2,train3,test,train3,train5,train7,train10,train7,test,0.003106301,2.984158052
2016-01,2016,1,Inverness,Roadside,265708.85,845668.85,-4.241451007,57.48130795,0,32.87096774,31,,31,,6.714163,8.322395,4.987269,84.14671862,1000.981759,76.86925139,3.994241488,26.99628441,4.212720098,0.35144772,Rural Areas,1,3.492589829,,,train4,train9,train5,test,train8,train5,train4,train2,train3,train8,0.003393486,9.161786596
2016-01,2016,1,Inverness Academy Street,Roadside,266653,845439,-4.225591911,57.47952362,31,,31,,31,,10.37614,8.294503,4.960936,84.10252142,1000.981153,75.94599968,3.929198412,26.90314798,4.264268116,0.26250624,Other Urban Areas,1,,,,train10,train10,train8,test,train1,train9,train8,train6,train4,test,0.002544886,19.54834901
2016-01,2016,1,Inverness Academy Street 1st Floor,Roadside,266653.2,845439.2,-4.225588687,57.47952547,31,,31,,31,,10.37614,8.294503,4.960936,84.10252142,1000.981153,75.94599968,3.929198412,26.90314798,4.264268116,0.26250624,Other Urban Areas,1,,,,test,test,test,train4,train2,train6,test,test,train9,train1,0.002544886,19.26604113
2016-01,2016,1,Lerwick,Rest,445350.77,1139689.93,-1.185318917,60.13922003,1,3.146666667,31,,31,,7.818168,6.285021,3.553609,83.41157341,1001.566407,187.1091205,9.666444319,37.52630996,3.360886805,0.21050614,Rural Areas,1,1.146343691,,,train5,train10,train9,test,train10,test,train7,train2,test,train7,0.000260889,140.2011149
2016-01,2016,1,N Lanarkshire Airdrie Kenilworth Dr,Roadside,277385.6,665831.3,-3.961072478,55.87000076,31,,31,,31,,14.48277,10.45659,6.307819,88.62247323,1001.965651,157.790285,5.495215023,20.48669676,3.636732479,0.37121144,Other Urban Areas,1,,,,train3,train4,train9,train10,train7,test,train2,train7,train6,test,0.003607977,14.81314762
2016-01,2016,1,N Lanarkshire Chapelhall,Roadside,278168.64,663115.23,-3.94734605,55.84580998,0,34.5,31,,31,,12.20694,10.72488,6.159377,88.65834338,1001.969172,158.8504362,5.179028553,20.34531585,3.791168999,0.27896234,Rural Areas,1,3.540959324,,,train1,train5,test,train7,train7,train5,test,train7,train10,test,0.000461791,3.193975307
2016-01,2016,1,N Lanarkshire Coatbridge Sunnyside Rd,Roadside,273054,665234.7,-4.029968166,55.86352174,31,,31,,31,,16.97923,10.09044,6.251932,88.42227393,1001.973824,143.1947672,4.733265455,21.03317782,3.874247517,0.39727788,Other Urban Areas,1,,,,train7,train6,train7,train4,train3,train7,train6,train9,train4,train8,0.003444783,11.55067351
2016-01,2016,1,N Lanarkshire Coatbridge Whifflet,Rest,273674.95,663927.14,-4.019443945,55.85194396,31,,0,10.22258065,31,,17.69104,11.09413,6.609863,88.04649811,1001.980302,153.0819024,4.607459588,20.5993951,3.980230925,0.34908336,Rural Areas,1,,2.324599062,,train10,train3,train1,train1,train6,train2,train6,test,train5,train3,0.004154454,16.13114014
2016-01,2016,1,N Lanarkshire Croy,Roadside,272770.4,675740.3,-4.039443976,55.95777804,0,24.62258065,9,12.64090909,31,,11.95169,9.241319,5.591946,89.02565238,1001.917391,192.1911898,4.678942577,20.18478152,3.753434617,0.59424276,Other Urban Areas,1,3.203663934,2.536938308,,test,train6,train7,test,test,test,train1,test,test,train7,0.001112801,9.039749229
2016-01,2016,1,N Lanarkshire Kirkshaws,Roadside,272522.8,663029.8,-4.037413226,55.84358325,0,40.53225806,0,10.02580645,31,,17.00101,10.8661,6.658315,88.11887309,1001.981477,153.5450266,4.424145405,20.8750683,4.039067349,0.38701076,Other Urban Areas,1,3.702098152,2.305162414,,train2,train9,train7,train6,train9,train4,train9,train5,train3,test,0.005226798,32.05366888
2016-01,2016,1,N Lanarkshire Moodiesburn,Roadside,269929,670386,-4.082340363,55.90894138,0,26.6483871,31,,31,,15.28426,10.19931,6.128171,89.23871965,1001.949607,189.4700566,4.6077373,21.47182204,3.908448504,0.5906018,Other Urban Areas,1,3.282728627,,,train1,test,train2,train2,test,train2,train9,train3,train5,train8,0.002772129,11.22300763
2016-01,2016,1,N Lanarkshire Motherwell,Roadside,275540.87,656789.09,-3.986388952,55.78833303,31,,0,10.73870968,31,,21.31661,11.20603,6.850164,88.32762658,1001.992052,197.1945517,3.94633436,20.42846363,3.980738696,0.37624388,Rural Areas,1,,2.37385494,,train10,test,train9,test,test,train6,train3,train5,test,train2,0.002828871,81.53773543
2016-01,2016,1,N Lanarkshire Shawhead Coatbridge,Roadside,273411,662997,-4.023223128,55.84352272,0,35.32580645,1,11,31,,21.39296,12.46955,6.940497,87.97519184,1001.982901,155.4674441,4.28073938,20.56522987,4.119362782,0.40497236,Other Urban Areas,1,3.564613758,2.397895273,,train2,test,train2,train6,train1,train7,train4,train8,train4,train7,0.000753627,19.7483369
2016-01,2016,1,N Lanarkshire Uddingston New Edinburgh Rd,Roadside,269145.6,661499.7,-4.09057047,55.82893997,31,,31,,31,,21.32629,12.36038,7.028868,88.22820632,1001.989963,163.0078967,3.669074231,21.53237379,4.348420233,0.47906932,Large Urban Areas,1,,,,train3,train9,train7,train6,train1,train10,train4,train10,train6,test,0.003157591,19.34483261
2016-01,2016,1,North Ayrshire Irvine High St,Kerbside,232142,638892,-4.666789703,55.61457831,0,31.17419355,0,12.7,0,7.241935484,10.71581,9.002791,5.783385,85.84365407,1001.587681,162.2125105,5.77842187,16.59020795,5.493696554,0.43035536,Other Urban Areas,1,3.439590623,2.541601993,1.979888503,train9,train1,train3,train2,train4,test,test,train8,test,train7,0.002991044,142.8479924
2016-01,2016,1,Paisley Gordon Street,Roadside,248316.83,663615.52,-4.423958026,55.84183603,0,35.12258065,1,14.14333333,31,,16.34148,9.722612,5.995084,88.89460238,1001.820221,192.7383417,4.345442808,25.31020095,5.037568862,0.34144624,Rural Areas,1,3.558844247,2.649243371,,train8,test,train10,train4,test,test,train5,train10,train3,train1,0.004200029,13.50052293
2016-01,2016,1,Peebles,Rest,324814.65,641087.92,-3.19652692,55.65747203,0,9.84516129,31,,31,,3.912285,8.014412,5.04627,89.739039,1002.320048,199.598801,4.284971442,19.82147413,3.741806109,0.73213248,Rural Areas,1,2.286980095,,,train5,train2,train6,train8,train1,train3,train3,train1,train3,train9,0.001103301,325.8272606
2016-01,2016,1,Perth Atholl Street,Roadside,311577.28,723931.02,-3.434181973,56.39932696,0,43.18387097,0,16.00967742,31,,11.1477,9.786637,5.740034,88.88641214,1001.995952,187.901191,3.281003079,16.49901159,3.938550564,0.28111228,Rural Areas,1,3.765467068,2.773193378,,train5,train8,train3,train2,test,test,train3,train5,train9,train2,0.005320228,7.541035454
2016-01,2016,1,Perth Crieff,Roadside,286363,721614,-3.841475287,56.37312625,0,30.71290323,1,20.67,31,,4.807431,9.33672,5.470466,89.75186053,1002.022493,241.6474405,4.448287221,15.43999942,3.497199206,0.0885413,Rural Areas,1,3.424682867,3.028683374,,train7,train9,train6,train5,train2,train2,train10,train5,test,train6,0.003052405,8.087489738
2016-01,2016,1,Perth High Street,Roadside,311680.93,723624.9,-3.432400001,56.39659701,0,29.69354839,1,12.22,31,,11.1477,9.786637,5.740034,88.88641214,1001.995952,187.901191,3.281003079,16.49901159,3.938550564,0.50744164,Rural Areas,1,3.390929796,2.503073954,,train8,train8,test,train3,train6,train8,train10,train10,train10,train4,0.005320228,319.1852353
2016-01,2016,1,Renfrew Cockels Loan,Roadside,250464,665933,-4.390979228,55.86331069,0,40.71290323,0,14.18709677,31,,18.4888,11.0956,6.33919,88.45395333,1001.834878,162.994647,4.509306416,24.44853948,4.71116787,0.4831108,Large Urban Areas,1,3.706545075,2.652332874,,train8,train3,train8,train2,test,train2,train4,test,train5,train4,0.000807133,26.41545805
2016-01,2016,1,Renfrew Inchinnan Road,Roadside,250567,667558.1,-4.390231474,55.87793123,31,,31,,31,,15.94513,10.21566,6.191491,88.38738968,1001.817963,166.0211993,4.338569611,24.42107536,4.751434523,0.4046978,Large Urban Areas,1,,,,train10,train4,train1,test,train6,train4,train2,train3,train5,train2,0.004427658,10.64165285
2016-01,2016,1,South Ayrshire Ayr Harbour,Roadside,233617.25,622746.05,-4.633680996,55.47016203,31,,31,,31,,9.210422,8.208325,5.129355,85.23546118,1001.677648,139.2875929,6.142738072,16.31822846,5.582792562,0.31901174,Rural Areas,1,,,,train8,train5,train2,train8,train2,train3,train9,train8,train2,test,0.003313132,314.4604262
2016-01,2016,1,South Ayrshire Ayr High St,Roadside,233720.43,622114.8,-4.631672929,55.46453104,0,16.16129032,8,12.34782609,31,,9.210422,8.208325,5.129355,85.23546118,1001.677648,139.2875929,6.142738072,16.31822846,5.582792562,0.31901174,Rural Areas,1,2.782618897,2.513480022,,test,train1,train7,train3,train3,train10,train5,train9,train7,train7,0.003313132,20.8577063
2016-01,2016,1,South Lanarkshire Blantyre,Roadside,268916,657605,-4.09235526,55.79390732,31,,31,,31,,14.09675,10.47414,6.622684,88.41104062,1001.996719,172.0381732,3.595870576,21.84570904,4.252560085,0.44126784,Other Urban Areas,1,,,,train8,train9,test,train1,train7,train1,test,train4,test,train1,0.004507435,11.11249079
2016-01,2016,1,South Lanarkshire Cambuslang,Kerbside,264319,660519,-4.167073146,55.81880163,5,54.51153846,0,12.27741935,31,,15.12313,10.21219,6.363093,88.22654167,1001.993187,182.8458202,3.553429566,22.66238328,4.69331523,0.39134972,Large Urban Areas,1,3.998412394,2.50776175,,test,train4,train4,train9,train3,train6,test,train6,train8,train9,0.003260058,7.878133166
2016-01,2016,1,South Lanarkshire East Kilbride,Roadside,264384.55,655669.44,-4.163610983,55.775278,0,44.34193548,0,13.2,31,,15.64167,10.40251,6.429307,88.40502556,1001.987771,201.7777073,4.629450216,22.14727859,4.022850677,0.54374508,Rural Areas,1,3.791930854,2.58021683,,train5,train7,train10,train9,train1,train9,test,test,train4,train4,0.003947225,4.914430819
2016-01,2016,1,South Lanarkshire Hamilton,Roadside,272298,655289,-4.037365263,55.77401709,0,43.64516129,8,14.79130435,31,,17.12927,10.89328,6.480418,88.48739761,1001.993977,178.2916602,3.166375798,21.43082343,4.182148207,0.4099824,Other Urban Areas,1,3.776092424,2.694039464,,test,train7,train9,test,train5,train2,train10,train3,train8,train3,0.002328911,6.74367849
2016-01,2016,1,South Lanarkshire Lanark,Kerbside,288427.04,643700.54,-3.775657996,55.67393599,1,26.36333333,1,8.683333333,1,5.986666667,8.013946,9.228241,5.546964,90.92359341,1002.05948,179.8086072,6.29711184,19.51325647,3.225229336,0.18260374,Rural Areas,1,3.271974156,2.16140548,1.789534774,train6,test,test,test,train6,test,train1,train6,train1,train10,0.002411705,3.606069758
2016-01,2016,1,South Lanarkshire Raith Interchange 2,Roadside,271063.1,658087,-4.058362489,55.7988131,31,,31,,31,,21.05006,12.42551,6.983053,88.04291677,1001.992048,171.8176074,3.204582121,21.10976847,4.40382815,0.462432,Rural Areas,1,,,,test,train10,train1,train5,train2,test,train6,test,train1,train4,0.000333639,35.00838955
2016-01,2016,1,South Lanarkshire Rutherglen,Roadside,261113.75,661690.5,-4.218786034,55.82840798,0,52.2516129,0,16.06774194,31,,18.3892,10.87698,6.511906,87.93402047,1001.982871,182.5729118,3.775469956,23.18023126,4.867122371,0.34952336,Rural Areas,1,3.956070759,2.776813656,,test,train9,train2,train6,train6,test,train4,train10,train2,train6,0.004235152,10.42225267
2016-01,2016,1,South Lanarkshire Uddingston,Roadside,269657,660305.7,-4.081839503,55.81835747,0,36.12258065,0,7.532258065,0,5.258064516,16.85682,10.34078,6.420775,88.2429364,1001.991379,166.3632275,3.566559784,21.51269878,4.364678408,0.55479972,Other Urban Areas,1,3.586918172,2.019194873,1.659762996,train3,train2,test,train8,train1,train7,train9,train6,train4,train7,0.003012259,7.476428806
2016-01,2016,1,Stirling Craig's Roundabout,Roadside,279955,693012,-3.932178761,56.11471995,12,32.56842105,13,13.92777778,31,,12.61562,9.427147,5.659653,88.94076076,1001.900274,171.5367308,4.413952697,17.15749315,4.700538737,0.29624444,Other Urban Areas,1,3.48334314,2.633885247,,train9,test,train1,train4,train5,test,train9,train7,train4,train5,0.003784422,23.09566273
2016-01,2016,1,West Dunbartonshire Clydebank,Roadside,249721.28,672046.49,-4.406231024,55.91795997,4,29.88518519,4,7.9,4,5.659259259,14.92795,9.839438,5.967862,89.64101903,1001.752339,176.8521531,4.992718582,26.72860595,4.296534815,0.52138212,Rural Areas,1,3.397362879,2.066862759,1.733293011,train2,train1,test,train4,train9,train1,train7,train1,test,train5,0.00327771,29.32199251
2016-01,2016,1,West Dunbartonshire Glasgow Road,Roadside,240234.67,675198.79,-4.559729998,55.94319696,0,24.79032258,31,,31,,10.75688,8.948269,5.428979,90.48506852,1001.594883,211.2869953,4.037674194,27.29198879,4.716046162,0.36719212,Rural Areas,1,3.210453358,,,train4,test,train5,train3,train9,train4,test,train3,test,train10,0.00406473,5.975355394
2016-01,2016,1,West Lothian Broxburn,Roadside,308314.04,672230.25,-3.469190056,55.93435701,0,36.37741935,0,13.38064516,31,,14.64562,11.25988,6.40962,87.43049449,1001.866262,146.4603587,4.536488368,30.12952455,4.258911364,0.63473512,Rural Areas,1,3.593948235,2.593809272,,train10,train8,train3,test,train3,test,train7,train7,train9,train6,0.002236293,7.21704839
2016-01,2016,1,West Lothian Linlithgow High Street 2,Roadside,300419.7,677120.9,-3.597309839,55.97670967,1,36.43666667,0,13.59354839,31,,13.99723,10.37993,6.012998,88.32731739,1001.863435,158.1202156,5.316384183,26.06096308,4.542449724,0.20527786,Other Urban Areas,1,3.595575594,2.609595297,,train7,train3,train5,test,test,train3,train4,train3,train2,train4,0.001483517,6.003113457
2016-01,2016,1,West Lothian Newton,Roadside,309258,677728.99,-3.45593904,55.98392504,0,24.98064516,3,14.66071429,31,,11.30249,11.79362,6.21874,87.71676315,1001.852998,169.8654072,5.705177777,30.38198783,4.18980736,0.46775368,Rural Areas,1,3.218101331,2.685171419,,train6,train6,train7,train4,test,train7,train2,train8,train8,train10,4.42E-05,5.755533574
2016-02,2016,2,Aberdeen Anderson Dr,Roadside,392504.39,804189.75,-2.125446985,57.12856696,0,24.80344828,0,12.28275862,29,,15.96019,10.55266,6.172001,76.3144753,1002.577512,41.85622666,5.892685841,101.2902677,3.542060067,0.43188144,Large Urban Areas,2,3.210982687,2.508196541,,test,train4,test,train9,train7,train5,train8,test,train3,test,0.005123445,14.49298793
2016-02,2016,2,Aberdeen Errol Place,Rest,394395.8,807391.98,-2.094278044,57.15736002,1,28.01785714,1,9.414285714,2,3.485185185,19.87877,10.31663,5.94299,76.0313088,1002.541347,43.7402155,6.046297482,102.9133358,3.820774392,0.35453776,Large Urban Areas,2,3.332842062,2.242228292,1.248521181,train9,train6,train2,train9,train2,train10,train8,train2,test,test,0.006877316,76.62294631
2016-02,2016,2,Aberdeen King Street,Roadside,394333,808770,-2.095348117,57.16973795,0,32.14827586,0,15.15517241,29,,17.38135,10.17115,5.806363,76.31364976,1002.530481,41.65424257,5.907191927,103.6077904,3.857722354,0.50935088,Large Urban Areas,2,3.470358821,2.718341887,,train9,train7,train8,train3,train10,train5,train10,train4,test,train9,0.003926085,9.599338545
2016-02,2016,2,Aberdeen Market Street 2,Roadside,394551.62,805673.18,-2.091663919,57.14192196,0,38.22068966,0,15.75517241,0,5.696551724,31.23656,11.62385,6.849536,76.24758996,1002.561824,42.94123342,6.041236908,103.6350148,3.835612969,0.22409628,Large Urban Areas,2,3.643376983,2.757168719,1.739861031,train10,train6,train5,test,test,train2,train8,test,train1,test,0.003730111,7.363513475
2016-02,2016,2,Aberdeen Union Street Roadside,Roadside,393655.92,805967.6,-2.106472003,57.14455502,8,52.46666667,6,14.2,8,7.657142857,22.30283,10.77242,6.308893,76.15183501,1002.566379,43.78020023,5.909490496,102.1961591,3.690720695,0.32540832,Large Urban Areas,2,3.960178047,2.653241965,2.035638919,train2,train1,train4,train2,train9,train8,test,train4,test,train8,0.008052278,13.61053035
2016-02,2016,2,Aberdeen Wellington Road,Roadside,394410.99,804813.2,-2.093968047,57.13419503,0,48.39655172,0,18.19655172,29,,20.35855,10.55765,6.170999,76.47386029,1002.568853,43.94067951,6.404091976,103.7150341,3.696347515,0.43798636,Large Urban Areas,2,3.879428566,2.90123211,,train1,train10,test,train7,train8,train9,train5,test,train9,train10,0.004007295,9.754705711
2016-02,2016,2,Alloa A907,Roadside,288689,693068,-3.791820157,56.11733979,0,37.65517241,0,14.21034483,29,,15.5629,10.26566,6.215875,83.05637481,1004.152298,115.3635569,4.768891851,70.63710904,3.675853127,0.47104532,Other Urban Areas,2,3.628470326,2.653970208,,train3,train3,train4,train10,train4,train10,train1,test,test,train3,0.003703423,2.820852372
2016-02,2016,2,Bush Estate,Rest,324629.04,663890.62,-3.205782065,55.862281,2,8.07037037,29,,29,,8.075246,9.222131,5.575827,83.2738957,1004.283747,90.51800877,4.989432814,76.37638563,2.923719455,0.63498732,Rural Areas,2,2.088199376,,,train5,test,train2,train7,test,train3,train3,train9,train9,train6,4.20E-05,67.55410485
2016-02,2016,2,Dumfries,Roadside,297019.53,576254.03,-3.614233057,55.070033,0,37.07241379,29,,29,,11.57991,9.023594,5.621769,84.09218631,1005.59738,131.7582695,3.780788661,74.50067993,4.315183363,0.4375522,Rural Areas,2,3.61287313,,,train9,train4,train9,train2,train2,train10,train6,train9,train7,train10,0.001794662,7.734609493
2016-02,2016,2,Dundee Broughty Ferry Road,Industrial,341970.73,730976.51,-2.943422928,56.46733201,1,22.98214286,1,12.01071429,29,,11.93455,9.713922,5.633138,79.58376525,1003.517547,46.45491891,4.340579773,103.3047888,4.127403558,0.38887924,Rural Areas,2,3.134717517,2.485799109,,train7,train1,train8,train1,train8,train7,train8,train2,train6,test,0.003567147,11.47388376
2016-02,2016,2,Dundee Lochee Road,Kerbside,338859.24,730774.79,-2.993867031,56.465126,1,61.5,0,20.21724138,29,,11.9917,9.910512,5.906315,79.76831027,1003.527784,53.90731451,4.816318132,104.4844612,3.554481614,0.46240368,Rural Areas,2,4.119037175,3.006535774,,train6,train1,train1,train3,test,test,test,train1,train2,train6,0.006963361,3.659449659
2016-02,2016,2,Dundee Mains Loan,Rest,340970.55,731892.31,-2.959861021,56.47543397,0,14.04482759,0,8.531034483,29,,14.51074,10.19106,6.031661,79.58272494,1003.511467,53.64533262,4.908151825,103.4482902,3.710825578,0.49845392,Rural Areas,2,2.642254185,2.14371063,,train1,train1,test,train7,test,train7,train10,train8,train10,train4,0.006828352,215.8970495
2016-02,2016,2,Dundee Meadowside,Roadside,340243.04,730658.37,-2.97138605,56.46425799,1,35.94642857,2,26.52962963,29,,18.79951,10.57289,6.049148,79.60295729,1003.520642,49.29879296,4.346309894,104.156177,4.046148567,0.38606936,Rural Areas,2,3.582029735,3.278262208,,train3,test,train10,train1,train3,train1,train3,train3,test,test,0.005197924,5.225675715
2016-02,2016,2,Dundee Seagate,Kerbside,340486.33,730446.2,-2.967389911,56.46238296,0,51.6137931,0,15.0862069,29,,18.79951,10.57289,6.049148,79.60295729,1003.520642,49.29879296,4.346309894,104.156177,4.046148567,0.22578486,Rural Areas,2,3.943788945,2.713780876,,train5,train2,train4,train7,train5,train4,train3,train5,test,train5,0.005197924,6.829277012
2016-02,2016,2,Dundee Union Street,Roadside,340234.85,730091.73,-2.971388965,56.45916699,29,,29,,29,,18.79951,10.57289,6.049148,79.60295729,1003.520642,49.29879296,4.346309894,104.156177,4.046148567,0.30119744,Rural Areas,2,,,,train1,test,train8,train6,test,train9,train1,train2,train2,train9,0.005197924,33.04760881
2016-02,2016,2,Dundee Whitehall Street,Roadside,340277.72,730154.91,-2.970707922,56.45973996,0,39.8137931,10,11.62631579,29,,18.79951,10.57289,6.049148,79.60295729,1003.520642,49.29879296,4.346309894,104.156177,4.046148567,0.22578486,Rural Areas,2,3.684213413,2.453271131,,train2,test,train9,train1,train3,train3,train8,test,train5,train2,0.005197924,72.37791012
2016-02,2016,2,E Ayrshire Kilmarnock St Marnock St,Roadside,242742,637705,-4.497991768,55.60746529,0,34.44137931,6,12.6826087,29,,13.07946,9.542433,5.984146,82.05289537,1004.770872,148.0655902,4.052574357,72.25268243,4.507539573,0.42539828,Other Urban Areas,2,3.539258728,2.540231661,,train7,train5,test,test,train10,train1,train5,train9,test,test,0.002772406,8.746726285
2016-02,2016,2,East Dunbartonshire Bearsden,Roadside,254271.48,672072.75,-4.333505014,55.91959602,1,64.18214286,0,13.73793103,29,,13.19853,9.554876,5.979587,84.84042763,1004.458113,145.4249166,4.510198515,79.70910005,3.679354785,0.5890956,Rural Areas,2,4.161725023,2.620160696,,train1,train10,train4,train7,train4,train9,train10,train10,train2,train3,0.002942088,9.571084396
2016-02,2016,2,East Dunbartonshire Bishopbriggs,Roadside,260995.7,670132.48,-4.225000046,55.90416698,0,44.48965517,0,14.99310345,29,,14.47907,9.95733,6.20464,84.42236008,1004.51267,134.2150047,4.483174989,77.30353987,3.576263047,0.56292964,Rural Areas,2,3.795256694,2.707590325,,train8,train4,test,test,train10,train6,train6,train4,train1,test,0.002766871,9.929695603
2016-02,2016,2,East Dunbartonshire Kirkintilloch,Roadside,265683.75,673520.86,-4.151758928,55.93592099,0,43.0137931,1,13.85,29,,13.29463,9.749344,5.927018,84.88819116,1004.470372,130.4535583,4.180317383,77.05830751,3.429459704,0.53690884,Rural Areas,2,3.761520834,2.628285233,,train7,train9,train6,train9,train5,train9,train2,train9,train5,train4,0.003028591,9.422364395
2016-02,2016,2,East Dunbartonshire Milngavie,Roadside,255325.27,674115.52,-4.317753008,55.93825301,0,33.60689655,0,12.47241379,29,,11.8361,9.162085,5.715908,85.53570253,1004.431113,153.3397938,4.083743911,81.06918954,3.648542925,0.54989184,Rural Areas,2,3.5147313,2.523519309,,train2,train6,train6,train5,train1,train4,train4,train2,train1,train5,0.00274991,9.562910204
2016-02,2016,2,East Lothian Musselburgh N High St,Roadside,333941,672836,-3.059222799,55.9440076,0,34.23793103,1,11.81785714,29,,15.34216,11.44618,6.71564,82.41361906,1004.197349,51.73280596,5.473438232,85.02521354,4.202200593,0.5232308,Large Urban Areas,2,3.533334124,2.469611705,,train6,train1,train3,train5,test,train1,test,train6,train1,train1,0.004932163,11.03844802
2016-02,2016,2,Edinburgh Currie,Rest,317575.4,667874.3,-3.319660353,55.89690865,3,8.211538462,0,7.386206897,29,,10.74471,10.57791,6.132316,82.9763743,1004.21617,75.72429271,5.054915186,76.90897001,2.812514284,0.57209024,Large Urban Areas,2,2.105540295,1.999614328,,train3,test,train1,test,test,train6,test,train3,train8,test,0.002462852,367.6985473
2016-02,2016,2,Edinburgh Glasgow Road,Roadside,313101,672651,-3.392727136,55.9390261,0,40.8137931,4,15.84,29,,20.34748,11.68402,6.429578,82.47238676,1004.170503,72.52214643,4.559232661,77.782534,3.584060785,0.47661648,Rural Areas,2,3.709020091,2.762538386,,train4,train5,train8,train4,train5,train1,test,train7,train8,train6,0.000108079,7.179777766
2016-02,2016,2,Edinburgh Gorgie Road,Roadside,323121,672314,-3.232267016,55.93770769,0,45.02413793,29,,29,,22.76692,12.34375,7.023488,80.09650155,1004.174098,62.36653005,5.703277045,76.89894821,4.138634923,0.35425108,Large Urban Areas,2,3.807198744,,,train2,test,train5,train8,train8,train3,train4,train3,train1,test,0.012584093,13.05821225
2016-02,2016,2,Edinburgh Nicolson Street,Roadside,326150,673046,-3.183990832,55.94475855,29,,29,,29,,22.07976,11.02488,6.58188,80.21198773,1004.171478,59.10600833,6.225778508,78.84995021,4.150398538,0.40104676,Large Urban Areas,2,,,,train4,test,train2,train5,train5,train8,train5,train1,train10,train3,0.007336469,7.022324952
2016-02,2016,2,Edinburgh Queen Street,Roadside,324825.48,674079.54,-3.205481028,55.953837,0,35.07241379,0,12.24482759,29,,21.32914,11.30533,6.816098,80.21324285,1004.156872,66.01674237,6.144250401,78.63381407,4.111585605,0.4357858,Rural Areas,2,3.55741489,2.50510361,,train6,train8,train4,train5,train4,train1,test,test,train9,train1,0.008975768,15.17135145
2016-02,2016,2,Edinburgh Queensferry Road,Roadside,318734.92,674931.5,-3.303249928,55.96049697,1,46.93928571,0,17.83793103,29,,15.46728,11.37644,6.640375,81.44990832,1004.152548,66.72973556,5.65476443,77.82309256,3.832305665,0.57902792,Rural Areas,2,3.848854973,2.881327147,,train4,train8,train8,test,train3,train1,train2,train6,train8,train5,0.003790773,8.259895052
2016-02,2016,2,Edinburgh Salamander St,Roadside,327613.24,676342.55,-3.161455035,55.97459399,0,33.73793103,0,15.06551724,29,,16.93968,11.93011,6.629832,81.02397228,1004.144171,55.16540452,6.862207652,82.92622893,4.309339972,0.28202178,Rural Areas,2,3.518622754,2.712408506,,train9,train10,test,test,train5,train8,train2,test,train3,train2,0.005556022,7.082331756
2016-02,2016,2,Edinburgh St John's Road,Kerbside,320079.88,672902.79,-3.281110919,55.9425,0,67.33103448,29,,29,,17.72256,11.24137,6.725598,80.70464592,1004.169485,61.80291958,5.24764336,76.97219529,3.926854812,0.44989116,Rural Areas,2,4.209621267,,,train3,train4,train5,train10,train4,train10,train3,test,train7,train8,0.004367238,14.36624253
2016-02,2016,2,Edinburgh St Leonards,Rest,326264.3,673136.49,-3.18218598,55.94558898,29,,3,9.880769231,3,4.823076923,22.07976,11.02488,6.58188,80.21198773,1004.171478,59.10600833,6.225778508,78.84995021,4.150398538,0.40104676,Rural Areas,2,,2.290590366,1.57341209,train1,train2,train10,train6,train8,test,test,train5,train3,train10,0.007336469,44.11561169
2016-02,2016,2,Eskdalemuir,Rest,323550.97,603021.74,-3.206110971,55.31530997,0,2.262068966,29,,29,,2.191195,7.922523,5.111669,86.35567807,1005.766165,209.9592901,4.662936263,69.88045921,2.15550113,0.63246532,Rural Areas,2,0.816279866,,,train8,train7,test,train10,test,test,train3,train2,train7,train8,1.60E-06,233.9918751
2016-02,2016,2,Falkirk Grangemouth MC,Rest,292818.05,682006.92,-3.721013031,56.01895095,29,,1,10.45357143,29,,11.36934,10.3494,5.952175,82.25842582,1004.209503,113.3719258,4.778759056,72.28572614,4.204053817,0.35618808,Rural Areas,2,,2.346943684,,train9,train3,train3,test,test,test,test,train1,train9,train9,0.000494242,43.16050621
2016-02,2016,2,Falkirk Haggs,Roadside,278977,679271,-3.941685363,55.99108677,1,41.94285714,1,13.10357143,29,,14.65693,11.06707,6.076895,84.10526913,1004.342552,160.3918516,4.223390617,76.39966284,3.060584892,0.56948936,Other Urban Areas,2,3.736308148,2.572884821,,test,test,train10,train10,train10,train8,train10,train10,train2,train2,0.001141593,6.344912512
2016-02,2016,2,Falkirk Hope St,Roadside,288688.39,680219.33,-3.78648491,56.00195595,2,29.62222222,29,,29,,15.57374,10.4761,6.359032,82.91205698,1004.267778,152.4637808,4.469309336,73.93812094,3.829929911,0.56556984,Rural Areas,2,3.38852483,,,test,train5,train3,train3,train4,train8,train8,train4,test,train1,0.00230096,9.767545758
2016-02,2016,2,Falkirk Main St Bainsford,Roadside,288563.7,681516.1,-3.789021528,56.01357234,0,30.93448276,0,9.665517241,29,,14.38369,10.53836,6.426398,82.91418945,1004.256808,140.24378,4.455101901,74.0173343,3.835309244,0.480326,Other Urban Areas,2,3.431871509,2.268564628,,train5,train8,train1,train10,train9,train8,test,train2,train1,train6,0.003891477,7.609453912
2016-02,2016,2,Falkirk West Bridge Street,Roadside,288457,680064,-3.790128751,56.00050725,0,48.03448276,0,14.85517241,29,,15.57374,10.4761,6.359032,82.91205698,1004.267778,152.4637808,4.469309336,73.93812094,3.829929911,0.56556984,Other Urban Areas,2,3.871919144,2.698348115,,test,train4,test,train9,train2,train5,train5,train1,train10,train4,0.00230096,7.354256285
2016-02,2016,2,Fife Cupar,Roadside,337369.34,714578.52,-3.014167029,56.31944401,0,34.39310345,0,16.26551724,29,,7.778882,10.49256,6.004348,81.77716336,1003.698832,54.25923909,3.693656753,91.79174439,3.647231727,0.50700968,Rural Areas,2,3.537856063,2.78904736,,train7,train10,train6,train2,train8,test,train6,train4,train10,train10,0.003053321,6.010415946
2016-02,2016,2,Fife Dunfermline,Roadside,309924.49,687724.72,-3.448620052,56.07383003,0,33.24137931,0,13.92758621,29,,13.12197,10.66972,6.090469,82.12024903,1004.077348,98.8668225,6.519170491,66.23020932,3.400340057,0.88959232,Rural Areas,2,3.503795465,2.633871493,,test,train7,test,train1,train9,train5,test,test,test,test,0.002810611,11.15464231
2016-02,2016,2,Fife Kirkcaldy,Roadside,329143.57,692986.35,-3.141347009,56.12433096,25,20.025,25,11.875,29,,9.710244,8.896281,5.402284,81.72154748,1003.991179,61.16874081,6.565424755,84.91697163,4.113084643,0.3213306,Rural Areas,2,2.996981493,2.47443535,,train10,train2,train6,train4,train2,train6,train1,test,train10,train9,0.002052568,11.68128734
2016-02,2016,2,Fife Rosyth,Roadside,311770.51,683501.59,-3.417582065,56.03624296,4,36.636,0,10.3137931,0,5.024137931,15.33473,11.20072,6.564666,81.93931581,1004.092763,69.6959363,6.198814044,72.7971536,3.938507687,0.51806392,Rural Areas,2,3.601031364,2.333482136,1.614253883,train4,train3,train4,train1,train7,train2,train9,train6,train6,train5,0.003752911,10.58146139
2016-02,2016,2,Fort William,Rest,210849.73,774418.72,-5.101101946,56.82265998,15,12.63571429,29,,29,,3.747717,7.393681,4.461241,82.81192915,1004.00088,169.9113398,1.116332287,61.7069303,3.808695832,0.58860436,Rural Areas,2,2.536527272,,,test,train7,train4,train6,train10,test,train5,test,train6,train3,0.000779062,191.0125739
2016-02,2016,2,Glasgow Anderston,Rest,257940.81,665497.95,-4.271388994,55.86166699,0,24.68965517,0,15,29,,28.29642,12.54195,6.908516,82.39127006,1004.579791,138.1187272,3.939288104,78.02800643,4.765284571,0.27316204,Rural Areas,2,3.206384337,2.708050201,,train3,train5,train7,train9,train6,train9,train1,train8,train8,test,0.00708588,46.64159378
2016-02,2016,2,Glasgow Burgher St,Roadside,262549.48,664168.91,-4.197139912,55.85107102,0,41.15517241,0,15,29,,17.21428,10.19723,6.201643,82.22188799,1004.604969,139.2246014,3.584602395,77.90800186,4.324112847,0.49626364,Rural Areas,2,3.717349616,2.708050201,,train2,train3,train1,train8,train4,train10,train1,train8,train2,train1,0.002918921,8.538160264
2016-02,2016,2,Glasgow Byres Road,Roadside,256526.91,666936.95,-4.294722015,55.874167,0,44.85862069,0,8.524137931,29,,21.67176,10.25663,6.174359,82.65516674,1004.56206,132.2707363,4.018213809,78.05376385,4.545988971,0.37186336,Rural Areas,2,3.803515782,2.142901896,,train1,train2,train3,train8,train7,train6,train2,train9,train4,train3,0.008033421,9.448460622
2016-02,2016,2,Glasgow Dumbarton Road,Roadside,255030,666608,-4.31844935,55.8707657,0,61.07931034,0,17.7862069,29,,22.02779,10.69954,6.379338,82.7023223,1004.554953,139.0907713,3.923152947,78.13726848,4.436787256,0.48599996,Large Urban Areas,2,4.112173189,2.878423263,,test,train6,train6,train7,train4,test,train7,train5,train6,train2,0.010215927,9.621623143
2016-02,2016,2,Glasgow Great Western Road,Roadside,258007,666651,-4.270936625,55.87203836,2,44.11481481,29,,29,,27.48459,12.29878,6.844817,82.54468111,1004.5692,135.521874,4.023437647,77.91835506,4.656323863,0.56415824,Large Urban Areas,2,3.786795663,,,train4,test,train10,train10,test,train7,train1,train1,test,test,0.007522473,15.37028264
2016-02,2016,2,Glasgow High Street,Roadside,260014.1,665348.9,-4.23821368,55.86093551,1,46.07857143,5,13.4,4,8.496,27.48627,12.08232,6.826867,82.25503099,1004.588255,145.1731852,4.038215777,77.57118672,4.426936474,0.47886384,Large Urban Areas,2,3.830348014,2.595254707,2.139595464,test,train3,train5,train8,train6,train4,train6,test,test,train2,0.005010073,13.7337869
2016-02,2016,2,Glasgow Kerbside,Kerbside,258713.92,665194.51,-4.258888922,55.85917001,0,72.96551724,29,,29,,31.71115,11.73638,6.829536,82.32700325,1004.583117,141.500951,4.073558201,77.77387394,4.701960516,0.32195828,Rural Areas,2,4.289986963,,,test,train5,train2,train3,train10,train2,test,train4,train6,train7,0.003820828,286.6771733
2016-02,2016,2,Glasgow Nithsdale Road,Roadside,257886.88,662669.31,-4.270767942,55.83625604,29,,0,11.60689655,29,,18.30284,10.08283,6.141131,82.47041194,1004.615046,146.0042523,3.69323278,78.48031977,4.075462703,0.39061676,Rural Areas,2,,2.451599452,,test,train8,test,train5,train8,test,train7,train7,train3,train8,0.007081626,9.431613068
2016-02,2016,2,Glasgow Townhead,Rest,259692.6,665899.13,-4.24363094,55.86578198,2,35.06666667,3,9.857692308,5,6.233333333,25.42956,10.5857,6.348083,82.31597574,1004.585939,143.0771066,3.993669807,77.84035963,4.647427555,0.47886384,Rural Areas,2,3.557251012,2.288252095,1.829911235,train6,test,test,test,train7,train3,test,train4,train4,train9,0.00823493,286.2007658
2016-02,2016,2,Glasgow Waulkmillglen Reservoir,Rest,252455.25,658157.36,-4.354967932,55.79412004,1,12.87857143,1,8.021428571,29,,9.787962,8.898339,5.479627,84.43410623,1004.634506,194.4447452,3.611139193,82.11141324,3.667471676,0.87395168,Rural Areas,2,2.555564801,2.082116532,,train4,train2,test,train1,test,train4,train7,train1,train7,train3,0.000584924,703.3625679
2016-02,2016,2,Grangemouth,Industrial,293829.88,681020.65,-3.704398944,56.01031895,2,21.01851852,6,7.986956522,7,4.586363636,16.20508,10.28637,6.357592,82.32650426,1004.211537,113.5238901,4.882669643,72.31843041,4.210620593,0.48891084,Rural Areas,2,3.045403883,2.077809776,1.523087474,test,test,train10,train3,train9,train3,train2,train7,train7,train1,0.002763145,276.6920559
2016-02,2016,2,Grangemouth Moray,Rest,293436.55,681344.72,-3.710832922,56.01314198,0,21.96896552,29,,29,,16.20508,10.28637,6.357592,82.32650426,1004.211537,113.5238901,4.882669643,72.31843041,4.210620593,0.48891084,Rural Areas,2,3.089630799,,,train6,train7,train9,train2,train1,train4,train9,test,train5,train5,0.002763145,58.50815374
2016-02,2016,2,Inverclyde Greenock A8,Roadside,229331.5,675714.7,-4.73442097,55.94407866,0,35.76896552,2,13.05185185,29,,11.61316,8.545309,5.226347,81.28865318,1004.272917,198.9740593,5.582710455,78.2728288,4.324713403,0.44464708,Other Urban Areas,2,3.577080632,2.568930028,,test,train2,train3,test,train3,train5,train7,train10,train7,test,0.003106301,2.984158052
2016-02,2016,2,Inverness,Roadside,265708.85,845668.85,-4.241451007,57.48130795,2,32.58148148,29,,29,,6.714163,8.322395,4.987269,80.24413189,1002.521349,61.44969355,3.649138083,76.28367632,3.613268334,0.40984488,Rural Areas,2,3.483744074,,,train4,train9,train5,test,train8,train5,train4,train2,train3,train8,0.003393486,9.161786596
2016-02,2016,2,Inverness Academy Street,Roadside,266653,845439,-4.225591911,57.47952362,29,,29,,29,,10.37614,8.294503,4.960936,80.13338295,1002.514995,60.90137979,3.556862517,76.03136155,3.64457992,0.30948204,Other Urban Areas,2,,,,train10,train10,train8,test,train1,train9,train8,train6,train4,test,0.002544886,19.54834901
2016-02,2016,2,Inverness Academy Street 1st Floor,Roadside,266653.2,845439.2,-4.225588687,57.47952547,29,,29,,29,,10.37614,8.294503,4.960936,80.13338295,1002.514995,60.90137979,3.556862517,76.03136155,3.64457992,0.30948204,Other Urban Areas,2,,,,test,test,test,train4,train2,train6,test,test,train9,train1,0.002544886,19.26604113
2016-02,2016,2,Lerwick,Rest,445350.77,1139689.93,-1.185318917,60.13922003,0,3.34137931,29,,29,,7.818168,6.285021,3.553609,80.93024804,999.2860821,119.2610534,7.806782389,93.12558024,2.891729216,0.16130689,Rural Areas,2,1.206383689,,,train5,train10,train9,test,train10,test,train7,train2,test,train7,0.000260889,140.2011149
2016-02,2016,2,N Lanarkshire Airdrie Kenilworth Dr,Roadside,277385.6,665831.3,-3.961072478,55.87000076,29,,29,,29,,14.48277,10.45659,6.307819,83.94969043,1004.560443,127.8328311,5.212855952,75.04870088,2.912926338,0.56935736,Other Urban Areas,2,,,,train3,train4,train9,train10,train7,test,train2,train7,train6,test,0.003607977,14.81314762
2016-02,2016,2,N Lanarkshire Chapelhall,Roadside,278168.64,663115.23,-3.94734605,55.84580998,0,44.86896552,29,,29,,12.20694,10.72488,6.159377,84.08879342,1004.585121,123.1514262,4.905264104,74.78930787,3.074480211,0.57716236,Rural Areas,2,3.803746365,,,train1,train5,test,train7,train7,train5,test,train7,train10,test,0.000461791,3.193975307
2016-02,2016,2,N Lanarkshire Coatbridge Sunnyside Rd,Roadside,273054,665234.7,-4.029968166,55.86352174,29,,29,,29,,16.97923,10.09044,6.251932,83.6060516,1004.578101,128.9684427,4.382729434,76.80614757,3.221853936,0.48753036,Other Urban Areas,2,,,,train7,train6,train7,train4,train3,train7,train6,train9,train4,train8,0.003444783,11.55067351
2016-02,2016,2,N Lanarkshire Coatbridge Whifflet,Rest,273674.95,663927.14,-4.019443945,55.85194396,29,,0,10.27931034,29,,17.69104,11.09413,6.609863,83.11847317,1004.607781,132.846251,4.268010836,75.77667055,3.321740864,0.46325704,Rural Areas,2,,2.330133171,,train10,train3,train1,train1,train6,train2,train6,test,train5,train3,0.004154454,16.13114014
2016-02,2016,2,N Lanarkshire Croy,Roadside,272770.4,675740.3,-4.039443976,55.95777804,2,25.42592593,11,9.461111111,29,,11.95169,9.241319,5.591946,84.08879945,1004.423034,157.5454271,4.313956155,75.08712463,3.194427532,0.55242756,Other Urban Areas,2,3.235769359,2.24718983,,test,train6,train7,test,test,test,train1,test,test,train7,0.001112801,9.039749229
2016-02,2016,2,N Lanarkshire Kirkshaws,Roadside,272522.8,663029.8,-4.037413226,55.84358325,3,47.18846154,3,11.28846154,29,,17.00101,10.8661,6.658315,83.20825043,1004.610013,129.4603109,4.068711714,76.57119556,3.387382363,0.49578852,Other Urban Areas,2,3.854149404,2.423781101,,train2,train9,train7,train6,train9,train4,train9,train5,train3,test,0.005226798,32.05366888
2016-02,2016,2,N Lanarkshire Moodiesburn,Roadside,269929,670386,-4.082340363,55.90894138,0,28.46206897,13,9.9375,29,,15.28426,10.19931,6.128171,84.58129667,1004.512223,153.1415586,4.247894102,77.10965403,3.267707676,0.60989964,Other Urban Areas,2,3.348572287,2.29631548,,train1,test,train2,train2,test,train2,train9,train3,train5,train8,0.002772129,11.22300763
2016-02,2016,2,N Lanarkshire Motherwell,Roadside,275540.87,656789.09,-3.986388952,55.78833303,29,,0,11.99655172,29,,21.31661,11.20603,6.850164,83.79681762,1004.702786,137.061701,3.68149988,74.77999802,3.226460724,0.49811748,Rural Areas,2,,2.484619252,,train10,test,train9,test,test,train6,train3,train5,test,train2,0.002828871,81.53773543
2016-02,2016,2,N Lanarkshire Shawhead Coatbridge,Roadside,273411,662997,-4.023223128,55.84352272,0,47.23448276,0,12.24137931,29,,21.39296,12.46955,6.940497,83.05322844,1004.623152,129.7968547,3.942134763,75.77692757,3.463535942,0.48268532,Other Urban Areas,2,3.855124193,2.504821959,,train2,test,train2,train6,train1,train7,train4,train8,train4,train7,0.000753627,19.7483369
2016-02,2016,2,N Lanarkshire Uddingston New Edinburgh Rd,Roadside,269145.6,661499.7,-4.09057047,55.82893997,29,,29,,29,,21.32629,12.36038,7.028868,83.3241261,1004.644043,134.7360033,3.33272976,78.17336118,3.671195625,0.56529848,Large Urban Areas,2,,,,train3,train9,train7,train6,train1,train10,train4,train10,train6,test,0.003157591,19.34483261
2016-02,2016,2,North Ayrshire Irvine High St,Kerbside,232142,638892,-4.666789703,55.61457831,0,37.27931034,0,13.92068966,0,6.768965517,10.71581,9.002791,5.783385,80.96629574,1004.733192,128.788775,5.630514739,73.57176068,4.709327965,0.52027028,Other Urban Areas,2,3.61843849,2.633376198,1.912348271,train9,train1,train3,train2,train4,test,test,train8,test,train7,0.002991044,142.8479924
2016-02,2016,2,Paisley Gordon Street,Roadside,248316.83,663615.52,-4.423958026,55.84183603,0,38.17931034,0,13.18965517,29,,16.34148,9.722612,5.995084,84.1343914,1004.546289,172.1443916,3.952560738,79.04392738,4.402267062,0.45504264,Rural Areas,2,3.642293755,2.579432823,,train8,test,train10,train4,test,test,train5,train10,train3,train1,0.004200029,13.50052293
2016-02,2016,2,Peebles,Rest,324814.65,641087.92,-3.19652692,55.65747203,2,8.02962963,29,,29,,3.912285,8.014412,5.04627,84.66401333,1004.763098,89.88641931,4.181378284,72.57201388,2.904601025,0.60429612,Rural Areas,2,2.083138404,,,train5,train2,train6,train8,train1,train3,train3,train1,train3,train9,0.001103301,325.8272606
2016-02,2016,2,Perth Atholl Street,Roadside,311577.28,723931.02,-3.434181973,56.39932696,3,53.41538462,0,18.63448276,29,,11.1477,9.786637,5.740034,81.69696165,1003.827681,60.64992934,3.268389387,77.99968435,3.456429311,0.67271392,Rural Areas,2,3.978098806,2.925013776,,train5,train8,train3,train2,test,test,train3,train5,train9,train2,0.005320228,7.541035454
2016-02,2016,2,Perth Crieff,Roadside,286363,721614,-3.841475287,56.37312625,0,54.17586207,2,19.16666667,29,,4.807431,9.33672,5.470466,82.82867262,1004.006559,95.16177097,4.620323512,85.96430527,2.86070213,0.58542984,Rural Areas,2,3.99223546,2.953172659,,train7,train9,train6,train5,train2,train2,train10,train5,test,train6,0.003052405,8.087489738
2016-02,2016,2,Perth High Street,Roadside,311680.93,723624.9,-3.432400001,56.39659701,0,32.62068966,0,12.17931034,29,,11.1477,9.786637,5.740034,81.69696165,1003.827681,60.64992934,3.268389387,77.99968435,3.456429311,0.54475496,Rural Areas,2,3.484946739,2.499738639,,train8,train8,test,train3,train6,train8,train10,train10,train10,train4,0.005320228,319.1852353
2016-02,2016,2,Renfrew Cockels Loan,Roadside,250464,665933,-4.390979228,55.86331069,11,43.95555556,11,15.38888889,29,,18.4888,11.0956,6.33919,83.31456289,1004.537118,150.276653,4.133005734,77.17331103,4.055150394,0.51746636,Large Urban Areas,2,3.783179022,2.733645748,,train8,train3,train8,train2,test,train2,train4,test,train5,train4,0.000807133,26.41545805
2016-02,2016,2,Renfrew Inchinnan Road,Roadside,250567,667558.1,-4.390231474,55.87793123,29,,29,,29,,15.94513,10.21566,6.191491,83.26703612,1004.507496,148.0279807,3.976419579,76.69523225,4.132251676,0.54107908,Large Urban Areas,2,,,,train10,train4,train1,test,train6,train4,train2,train3,train5,train2,0.004427658,10.64165285
2016-02,2016,2,South Ayrshire Ayr Harbour,Roadside,233617.25,622746.05,-4.633680996,55.47016203,29,,29,,29,,9.210422,8.208325,5.129355,80.13590126,1004.893443,133.5187274,5.929279683,76.054622,4.674509854,0.40712464,Rural Areas,2,,,,train8,train5,train2,train8,train2,train3,train9,train8,train2,test,0.003313132,314.4604262
2016-02,2016,2,South Ayrshire Ayr High St,Roadside,233720.43,622114.8,-4.631672929,55.46453104,0,20,13,12.5875,29,,9.210422,8.208325,5.129355,80.13590126,1004.893443,133.5187274,5.929279683,76.054622,4.674509854,0.40712464,Rural Areas,2,2.995732274,2.532704258,,test,train1,train7,train3,train3,train10,train5,train9,train7,train7,0.003313132,20.8577063
2016-02,2016,2,South Lanarkshire Blantyre,Roadside,268916,657605,-4.09235526,55.79390732,29,,29,,29,,14.09675,10.47414,6.622684,83.68247125,1004.697383,132.774366,3.349604577,78.36147349,3.46542779,0.54519372,Other Urban Areas,2,,,,train8,train9,test,train1,train7,train1,test,train4,test,train1,0.004507435,11.11249079
2016-02,2016,2,South Lanarkshire Cambuslang,Kerbside,264319,660519,-4.167073146,55.81880163,0,49.48275862,0,13.98965517,29,,15.12313,10.21219,6.363093,83.2493263,1004.659104,146.0674954,3.284775394,79.4737169,3.933612558,0.47975964,Large Urban Areas,2,3.901624298,2.63831814,,test,train4,train4,train9,train3,train6,test,train6,train8,train9,0.003260058,7.878133166
2016-02,2016,2,South Lanarkshire East Kilbride,Roadside,264384.55,655669.44,-4.163610983,55.775278,0,40.57931034,0,14.76206897,29,,15.64167,10.40251,6.429307,83.63448359,1004.716625,166.1473921,4.431268613,77.52505182,3.108911346,0.61706824,Rural Areas,2,3.703258339,2.692060983,,train5,train7,train10,train9,train1,train9,test,test,train4,train4,0.003947225,4.914430819
2016-02,2016,2,South Lanarkshire Hamilton,Roadside,272298,655289,-4.037365263,55.77401709,0,52.31034483,29,,29,,17.12927,10.89328,6.480418,83.95074377,1004.719194,124.7204784,2.898868635,77.14270173,3.430869282,0.51467588,Other Urban Areas,2,3.957194149,,,test,train7,train9,test,train5,train2,train10,train3,train8,train3,0.002328911,6.74367849
2016-02,2016,2,South Lanarkshire Lanark,Kerbside,288427.04,643700.54,-3.775657996,55.67393599,0,31.13448276,0,10.84482759,0,6.065517241,8.013946,9.228241,5.546964,87.23884118,1004.805571,107.0979749,6.36409097,70.87429622,2.489499779,0.60016116,Rural Areas,2,3.438315975,2.383688246,1.802619822,train6,test,test,test,train6,test,train1,train6,train1,train10,0.002411705,3.606069758
2016-02,2016,2,South Lanarkshire Raith Interchange 2,Roadside,271063.1,658087,-4.058362489,55.7988131,29,,29,,29,,21.05006,12.42551,6.983053,83.18926641,1004.681714,119.2713789,2.899002949,76.88624604,3.68607207,0.51668488,Rural Areas,2,,,,test,train10,train1,train5,train2,test,train6,test,train1,train4,0.000333639,35.00838955
2016-02,2016,2,South Lanarkshire Rutherglen,Roadside,261113.75,661690.5,-4.218786034,55.82840798,0,59.52413793,0,18.06896552,29,,18.3892,10.87698,6.511906,82.71091146,1004.641472,142.0040165,3.502819875,78.84191727,4.09561641,0.42544448,Rural Areas,2,4.08638191,2.894195854,,test,train9,train2,train6,train6,test,train4,train10,train2,train6,0.004235152,10.42225267
2016-02,2016,2,South Lanarkshire Uddingston,Roadside,269657,660305.7,-4.081839503,55.81835747,0,41.4862069,0,9.696551724,0,4.565517241,16.85682,10.34078,6.420775,83.37491656,1004.657263,132.6900693,3.249399993,78.06132614,3.661921678,0.60703252,Other Urban Areas,2,3.725361008,2.27177033,1.518531814,train3,train2,test,train8,train1,train7,train9,train6,train4,train7,0.003012259,7.476428806
2016-02,2016,2,Stirling Craig's Roundabout,Roadside,279955,693012,-3.932178761,56.11471995,0,30.16896552,13,14.1375,29,,12.61562,9.427147,5.659653,83.20239957,1004.154057,116.9721112,4.240938425,79.08125782,4.164689127,0.37113928,Other Urban Areas,2,3.406813764,2.648830841,,train9,test,train1,train4,train5,test,train9,train7,train4,train5,0.003784422,23.09566273
2016-02,2016,2,West Dunbartonshire Clydebank,Roadside,249721.28,672046.49,-4.406231024,55.91795997,1,32.00714286,1,7.628571429,1,4.267857143,14.92795,9.839438,5.967862,85.07051916,1004.413702,148.8815443,4.561333783,81.04747327,3.64803719,0.64827144,Rural Areas,2,3.465959092,2.031900597,1.451111861,train2,train1,test,train4,train9,train1,train7,train1,test,train5,0.00327771,29.32199251
2016-02,2016,2,West Dunbartonshire Glasgow Road,Roadside,240234.67,675198.79,-4.559729998,55.94319696,0,26.33793103,29,,29,,10.75688,8.948269,5.428979,85.78159265,1004.287101,175.9892918,3.534389572,84.63875774,4.112016934,0.50786248,Rural Areas,2,3.271010145,,,train4,test,train5,train3,train9,train4,test,train3,test,train10,0.00406473,5.975355394
2016-02,2016,2,West Lothian Broxburn,Roadside,308314.04,672230.25,-3.469190056,55.93435701,0,39.87241379,0,14.09655172,29,,14.64562,11.25988,6.40962,82.71835671,1004.184152,82.08012364,4.815432958,76.70938909,3.42039357,0.48049276,Rural Areas,2,3.685684701,2.645930209,,train10,train8,train3,test,train3,test,train7,train7,train9,train6,0.002236293,7.21704839
2016-02,2016,2,West Lothian Linlithgow High Street 2,Roadside,300419.7,677120.9,-3.597309839,55.97670967,0,36.37586207,0,12.96551724,29,,13.99723,10.37993,6.012998,83.49568708,1004.190084,104.7547889,5.486677879,75.60824432,3.77089317,0.4955338,Other Urban Areas,2,3.593905425,2.562293313,,train7,train3,train5,test,test,train3,train4,train3,train2,train4,0.001483517,6.003113457
2016-02,2016,2,West Lothian Newton,Roadside,309258,677728.99,-3.45593904,55.98392504,0,26.36206897,0,16.8137931,29,,11.30249,11.79362,6.21874,83.10032983,1004.139707,81.51809277,6.134193392,76.80851557,3.354094636,0.5044688,Rural Areas,2,3.271926195,2.822199568,,train6,train6,train7,train4,test,train7,train2,train8,train8,train10,4.42E-05,5.755533574
2016-03,2016,3,Aberdeen Anderson Dr,Roadside,392504.39,804189.75,-2.125446985,57.12856696,0,25.49354839,0,11.9483871,31,,15.96019,10.55266,6.172001,79.53196492,1011.834575,44.66553983,4.8853911,117.7992975,5.938541398,0.45453856,Large Urban Areas,3,3.238425416,2.480596298,,test,train4,test,train9,train7,train5,train8,test,train3,test,0.005123445,14.49298793
2016-03,2016,3,Aberdeen Errol Place,Rest,394395.8,807391.98,-2.094278044,57.15736002,0,22.99032258,0,9.758064516,0,4.074193548,19.87877,10.31663,5.94299,79.57677433,1011.817089,43.27375456,4.96749764,119.8027154,6.155740942,0.29945298,Large Urban Areas,3,3.13507337,2.278094073,1.404672825,train9,train6,train2,train9,train2,train10,train8,train2,test,test,0.006877316,76.62294631
2016-03,2016,3,Aberdeen King Street,Roadside,394333,808770,-2.095348117,57.16973795,0,31.05806452,2,13.92413793,31,,17.38135,10.17115,5.806363,79.81604049,1011.811826,42.62511505,4.864142571,120.2118131,6.19630608,0.53359936,Large Urban Areas,3,3.435858501,2.633623876,,train9,train7,train8,train3,train10,train5,train10,train4,test,train9,0.003926085,9.599338545
2016-03,2016,3,Aberdeen Market Street 2,Roadside,394551.62,805673.18,-2.091663919,57.14192196,0,41.18387097,0,14.86774194,0,6.196774194,31.23656,11.62385,6.849536,79.79657613,1011.827269,42.39098804,4.950782381,120.1706854,6.162353118,0.20314328,Large Urban Areas,3,3.718046698,2.699193895,1.824028865,train10,train6,train5,test,test,train2,train8,test,train1,test,0.003730111,7.363513475
2016-03,2016,3,Aberdeen Union Street Roadside,Roadside,393655.92,805967.6,-2.106472003,57.14455502,7,47.575,0,12.48064516,0,7.474193548,22.30283,10.77242,6.308893,79.54336349,1011.828812,44.10662078,4.879437404,119.0495113,6.06315733,0.3057548,Large Urban Areas,3,3.862307413,2.524179057,2.011456227,train2,train1,train4,train2,train9,train8,test,train4,test,train8,0.008052278,13.61053035
2016-03,2016,3,Aberdeen Wellington Road,Roadside,394410.99,804813.2,-2.093968047,57.13419503,0,53.10322581,0,18.6483871,31,,20.35855,10.55765,6.170999,80.01408788,1011.8317,43.72270322,5.225776354,119.6489662,5.990109212,0.31806244,Large Urban Areas,3,3.972237676,2.92575966,,train1,train10,test,train7,train8,train9,train5,test,train9,train10,0.004007295,9.754705711
2016-03,2016,3,Alloa A907,Roadside,288689,693068,-3.791820157,56.11733979,0,34.83548387,8,16.0173913,31,,15.5629,10.26566,6.215875,81.51958616,1012.67299,30.6583788,3.862038913,108.264316,6.165364856,0.43381176,Other Urban Areas,3,3.550636519,2.773675088,,train3,train3,train4,train10,train4,train10,train1,test,test,train3,0.003703423,2.820852372
2016-03,2016,3,Bush Estate,Rest,324629.04,663890.62,-3.205782065,55.862281,0,7.970967742,31,,31,,8.075246,9.222131,5.575827,81.40874087,1012.597541,39.30219049,4.080694823,96.52934489,5.218952305,0.61124028,Rural Areas,3,2.075805909,,,train5,test,train2,train7,test,train3,train3,train9,train9,train6,4.20E-05,67.55410485
2016-03,2016,3,Dumfries,Roadside,297019.53,576254.03,-3.614233057,55.070033,0,33.88387097,31,,31,,11.57991,9.023594,5.621769,83.54932711,1013.161059,63.66163941,3.142514173,100.9971995,6.22059431,0.46085628,Rural Areas,3,3.522939119,,,train9,train4,train9,train2,train2,train10,train6,train9,train7,train10,0.001794662,7.734609493
2016-03,2016,3,Dundee Broughty Ferry Road,Industrial,341970.73,730976.51,-2.943422928,56.46733201,0,21.92258065,0,12.79032258,31,,11.93455,9.713922,5.633138,79.50603078,1012.300138,23.86514358,3.548226774,125.5786626,6.490510547,0.33049752,Rural Areas,3,3.087517185,2.548688837,,train7,train1,train8,train1,train8,train7,train8,train2,train6,test,0.003567147,11.47388376
2016-03,2016,3,Dundee Lochee Road,Kerbside,338859.24,730774.79,-2.993867031,56.465126,0,53.67741935,3,23.86428571,31,,11.9917,9.910512,5.906315,79.62858766,1012.308886,23.59840382,3.874304351,126.7402385,5.923603469,0.41633264,Rural Areas,3,3.982992417,3.17238302,,train6,train1,train1,train3,test,test,test,train1,train2,train6,0.006963361,3.659449659
2016-03,2016,3,Dundee Mains Loan,Rest,340970.55,731892.31,-2.959861021,56.47543397,0,15.34193548,0,9.525806452,31,,14.51074,10.19106,6.031661,79.48808019,1012.299683,25.14106832,3.973738205,125.4772329,6.045945953,0.43676232,Rural Areas,3,2.73058996,2.254004584,,train1,train1,test,train7,test,train7,train10,train8,train10,train4,0.006828352,215.8970495
2016-03,2016,3,Dundee Meadowside,Roadside,340243.04,730658.37,-2.97138605,56.46425799,6,40.748,1,20.62666667,31,,18.79951,10.57289,6.049148,79.49715386,1012.302764,24.62758754,3.544961324,126.4234412,6.415478215,0.38430184,Rural Areas,3,3.707406759,3.026584737,,train3,test,train10,train1,train3,train1,train3,train3,test,test,0.005197924,5.225675715
2016-03,2016,3,Dundee Seagate,Kerbside,340486.33,730446.2,-2.967389911,56.46238296,0,41.82580645,0,15.71612903,31,,18.79951,10.57289,6.049148,79.49715386,1012.302764,24.62758754,3.544961324,126.4234412,6.415478215,0.23675468,Rural Areas,3,3.733513528,2.754687512,,train5,train2,train4,train7,train5,train4,train3,train5,test,train5,0.005197924,6.829277012
2016-03,2016,3,Dundee Union Street,Roadside,340234.85,730091.73,-2.971388965,56.45916699,31,,31,,31,,18.79951,10.57289,6.049148,79.49715386,1012.302764,24.62758754,3.544961324,126.4234412,6.415478215,0.35364168,Rural Areas,3,,,,train1,test,train8,train6,test,train9,train1,train2,train2,train9,0.005197924,33.04760881
2016-03,2016,3,Dundee Whitehall Street,Roadside,340277.72,730154.91,-2.970707922,56.45973996,0,42.12258065,0,13.96451613,31,,18.79951,10.57289,6.049148,79.49715386,1012.302764,24.62758754,3.544961324,126.4234412,6.415478215,0.23675468,Rural Areas,3,3.740583954,2.63651955,,train2,test,train9,train1,train3,train3,train8,test,train5,train2,0.005197924,72.37791012
2016-03,2016,3,E Ayrshire Kilmarnock St Marnock St,Roadside,242742,637705,-4.497991768,55.60746529,0,31.30645161,4,12.69259259,31,,13.07946,9.542433,5.984146,80.07700081,1012.686789,44.42496329,3.363924585,109.3996402,6.755512564,0.39529544,Other Urban Areas,3,3.443824198,2.541018563,,train7,train5,test,test,train10,train1,train5,train9,test,test,0.002772406,8.746726285
2016-03,2016,3,East Dunbartonshire Bearsden,Roadside,254271.48,672072.75,-4.333505014,55.91959602,6,55.156,6,13.716,31,,13.19853,9.554876,5.979587,82.66768159,1012.600219,53.11164027,3.772516368,122.930504,6.17040213,0.52576008,Rural Areas,3,4.010165534,2.618563035,,train1,train10,train4,train7,train4,train9,train10,train10,train2,train3,0.002942088,9.571084396
2016-03,2016,3,East Dunbartonshire Bishopbriggs,Roadside,260995.7,670132.48,-4.225000046,55.90416698,6,33.604,6,14.732,31,,14.47907,9.95733,6.20464,82.43913061,1012.658379,47.22314644,3.696066233,117.0287492,6.151334707,0.57211888,Rural Areas,3,3.514645108,2.690021999,,train8,train4,test,test,train10,train6,train6,train4,train1,test,0.002766871,9.929695603
2016-03,2016,3,East Dunbartonshire Kirkintilloch,Roadside,265683.75,673520.86,-4.151758928,55.93592099,0,37.63870968,8,18.27391304,31,,13.29463,9.749344,5.927018,82.90155224,1012.666738,41.29779862,3.642456683,115.5449269,5.983097051,0.4714016,Rural Areas,3,3.628033034,2.905474526,,train7,train9,train6,train9,train5,train9,train2,train9,train5,train4,0.003028591,9.422364395
2016-03,2016,3,East Dunbartonshire Milngavie,Roadside,255325.27,674115.52,-4.317753008,55.93825301,0,23.62903226,0,13.45483871,31,,11.8361,9.162085,5.715908,83.30631562,1012.594567,52.8182871,3.508592724,125.2803934,6.168827532,0.53427128,Rural Areas,3,3.162476136,2.599338797,,train2,train6,train6,train5,train1,train4,train4,train2,train1,train5,0.00274991,9.562910204
2016-03,2016,3,East Lothian Musselburgh N High St,Roadside,333941,672836,-3.059222799,55.9440076,0,28.31290323,4,11.10740741,31,,15.34216,11.44618,6.71564,81.85292875,1012.549069,25.95344103,4.319509661,104.5741494,6.413332894,0.42402676,Large Urban Areas,3,3.343317645,2.40761222,,train6,train1,train3,train5,test,train1,test,train6,train1,train1,0.004932163,11.03844802
2016-03,2016,3,Edinburgh Currie,Rest,317575.4,667874.3,-3.319660353,55.89690865,3,9.478571429,2,7.748275862,31,,10.74471,10.57791,6.132316,81.07707493,1012.565783,33.27046945,3.936620839,95.90045368,5.734552318,0.50218748,Large Urban Areas,3,2.249033612,2.047470349,,train3,test,train1,test,test,train6,test,train3,train8,test,0.002462852,367.6985473
2016-03,2016,3,Edinburgh Glasgow Road,Roadside,313101,672651,-3.392727136,55.9390261,0,31.59354839,0,15.55483871,31,,20.34748,11.68402,6.429578,80.50639984,1012.54268,24.7471429,3.565643135,100.8381808,6.080491107,0.44065688,Rural Areas,3,3.452952935,2.744371761,,train4,train5,train8,train4,train5,train1,test,train7,train8,train6,0.000108079,7.179777766
2016-03,2016,3,Edinburgh Gorgie Road,Roadside,323121,672314,-3.232267016,55.93770769,0,43.3483871,31,,31,,22.76692,12.34375,7.023488,78.95056351,1012.540761,24.11043463,4.369009511,98.70114131,6.524480894,0.36574488,Large Urban Areas,3,3.769269496,,,train2,test,train5,train8,train8,train3,train4,train3,train1,test,0.012584093,13.05821225
2016-03,2016,3,Edinburgh Nicolson Street,Roadside,326150,673046,-3.183990832,55.94475855,31,,31,,31,,22.07976,11.02488,6.58188,79.48327875,1012.538042,22.17163014,4.772270627,100.6764136,6.440831305,0.4496614,Large Urban Areas,3,,,,train4,test,train2,train5,train5,train8,train5,train1,train10,train3,0.007336469,7.022324952
2016-03,2016,3,Edinburgh Queen Street,Roadside,324825.48,674079.54,-3.205481028,55.953837,0,31.07419355,0,13.61612903,31,,21.32914,11.30533,6.816098,79.44168766,1012.532452,22.53300074,4.628244016,101.353666,6.483542473,0.39129872,Rural Areas,3,3.436377685,2.611255048,,train6,train8,train4,train5,train4,train1,test,test,train9,train1,0.008975768,15.17135145
2016-03,2016,3,Edinburgh Queensferry Road,Roadside,318734.92,674931.5,-3.303249928,55.96049697,0,45.79354839,1,19.59333333,31,,15.46728,11.37644,6.640375,79.72592637,1012.530483,27.7899443,4.256563405,100.403195,6.180176988,0.56326524,Rural Areas,3,3.824143216,2.975189372,,train4,train8,train8,test,train3,train1,train2,train6,train8,train5,0.003790773,8.259895052
2016-03,2016,3,Edinburgh Salamander St,Roadside,327613.24,676342.55,-3.161455035,55.97459399,1,28.41,1,18.51333333,31,,16.93968,11.93011,6.629832,80.82233,1012.526469,20.58626894,5.127346652,105.959988,6.500355772,0.37570236,Rural Areas,3,3.346741196,2.918491193,,train9,train10,test,test,train5,train8,train2,test,train3,train2,0.005556022,7.082331756
2016-03,2016,3,Edinburgh St John's Road,Kerbside,320079.88,672902.79,-3.281110919,55.9425,0,59.40322581,31,,31,,17.72256,11.24137,6.725598,79.27213602,1012.538799,26.43076149,4.004817142,98.80653323,6.350897817,0.47646236,Rural Areas,3,4.084348531,,,train3,train4,train5,train10,train4,train10,train3,test,train7,train8,0.004367238,14.36624253
2016-03,2016,3,Edinburgh St Leonards,Rest,326264.3,673136.49,-3.18218598,55.94558898,31,,5,9.611538462,5,6.046153846,22.07976,11.02488,6.58188,79.48327875,1012.538042,22.17163014,4.772270627,100.6764136,6.440831305,0.4496614,Rural Areas,3,,2.2629643,1.799422342,train1,train2,train10,train6,train8,test,test,train5,train3,train10,0.007336469,44.11561169
2016-03,2016,3,Eskdalemuir,Rest,323550.97,603021.74,-3.206110971,55.31530997,2,1.94137931,31,,31,,2.191195,7.922523,5.111669,86.29412246,1013.462413,111.1777992,3.463653743,87.63488461,4.356548236,0.5787138,Rural Areas,3,0.663398705,,,train8,train7,test,train10,test,test,train3,train2,train7,train8,1.60E-06,233.9918751
2016-03,2016,3,Falkirk Grangemouth MC,Rest,292818.05,682006.92,-3.721013031,56.01895095,27,22.85,0,12.3483871,31,,11.36934,10.3494,5.952175,80.78751138,1012.631147,18.66927801,3.849757738,108.3001364,6.679489671,0.34539392,Rural Areas,3,3.128951117,2.513525455,,train9,train3,train3,test,test,test,test,train1,train9,train9,0.000494242,43.16050621
2016-03,2016,3,Falkirk Haggs,Roadside,278977,679271,-3.941685363,55.99108677,2,41.71724138,1,14.89333333,31,,14.65693,11.06707,6.076895,82.3442944,1012.684673,49.69419606,3.736862722,116.798485,5.774844094,0.5184012,Other Urban Areas,3,3.730914506,2.700913686,,test,test,train10,train10,train10,train8,train10,train10,train2,train2,0.001141593,6.344912512
2016-03,2016,3,Falkirk Hope St,Roadside,288688.39,680219.33,-3.78648491,56.00195595,0,23.0516129,31,,31,,15.57374,10.4761,6.359032,81.25483828,1012.661794,28.18205442,3.702650349,110.6260939,6.291020751,0.44265044,Rural Areas,3,3.137735741,,,test,train5,train3,train3,train4,train8,train8,train4,test,train1,0.00230096,9.767545758
2016-03,2016,3,Falkirk Main St Bainsford,Roadside,288563.7,681516.1,-3.789021528,56.01357234,1,24.88666667,0,11.5,31,,14.38369,10.53836,6.426398,81.28600654,1012.660316,27.63984706,3.690252035,111.4222282,6.290539285,0.45490108,Other Urban Areas,3,3.214332185,2.442347035,,train5,train8,train1,train10,train9,train8,test,train2,train1,train6,0.003891477,7.609453912
2016-03,2016,3,Falkirk West Bridge Street,Roadside,288457,680064,-3.790128751,56.00050725,0,43.85806452,0,16.64193548,31,,15.57374,10.4761,6.359032,81.25483828,1012.661794,28.18205442,3.702650349,110.6260939,6.291020751,0.44265044,Other Urban Areas,3,3.780958613,2.811925744,,test,train4,test,train9,train2,train5,train5,train1,train10,train4,0.00230096,7.354256285
2016-03,2016,3,Fife Cupar,Roadside,337369.34,714578.52,-3.014167029,56.31944401,0,29.43225806,2,16.32068966,31,,7.778882,10.49256,6.004348,80.96881968,1012.398321,25.73762528,3.19320495,114.2873608,5.936750567,0.47821792,Rural Areas,3,3.382091286,2.792433607,,train7,train10,train6,train2,train8,test,train6,train4,train10,train10,0.003053321,6.010415946
2016-03,2016,3,Fife Dunfermline,Roadside,309924.49,687724.72,-3.448620052,56.07383003,0,28.8516129,0,14.43548387,31,,13.12197,10.66972,6.090469,80.82750533,1012.532788,35.08764656,5.184079879,100.0727228,5.680723229,0.50773684,Rural Areas,3,3.362165898,2.669689333,,test,train7,test,train1,train9,train5,test,test,test,test,0.002810611,11.15464231
2016-03,2016,3,Fife Kirkcaldy,Roadside,329143.57,692986.35,-3.141347009,56.12433096,31,,31,,31,,9.710244,8.896281,5.402284,81.77259648,1012.499442,24.38672047,5.229379995,113.2217585,6.387174816,0.44305736,Rural Areas,3,,,,train10,train2,train6,train4,train2,train6,train1,test,train10,train9,0.002052568,11.68128734
2016-03,2016,3,Fife Rosyth,Roadside,311770.51,683501.59,-3.417582065,56.03624296,3,29.66071429,0,10.11612903,0,5.448387097,15.33473,11.20072,6.564666,80.61219764,1012.519291,24.82087652,4.866580018,101.6113679,6.253840213,0.49311712,Rural Areas,3,3.389823419,2.314131084,1.695319619,train4,train3,train4,train1,train7,train2,train9,train6,train6,train5,0.003752911,10.58146139
2016-03,2016,3,Fort William,Rest,210849.73,774418.72,-5.101101946,56.82265998,16,11.81333333,31,,31,,3.747717,7.393681,4.461241,83.52616497,1012.903237,109.608448,0.700018487,88.81204777,6.217280429,0.4288668,Rural Areas,3,2.469228837,,,test,train7,train4,train6,train10,test,train5,test,train6,train3,0.000779062,191.0125739
2016-03,2016,3,Glasgow Anderston,Rest,257940.81,665497.95,-4.271388994,55.86166699,0,19.41290323,0,14.65806452,31,,28.29642,12.54195,6.908516,80.59390459,1012.676133,51.1758347,3.222487133,119.3231225,7.049480681,0.18858126,Rural Areas,3,2.96593796,2.684990663,,train3,train5,train7,train9,train6,train9,train1,train8,train8,test,0.00708588,46.64159378
2016-03,2016,3,Glasgow Burgher St,Roadside,262549.48,664168.91,-4.197139912,55.85107102,0,34.58709677,0,16.28387097,31,,17.21428,10.19723,6.201643,80.49011461,1012.72194,47.58732787,2.979986687,117.0153359,6.833832445,0.42849992,Rural Areas,3,3.543480687,2.790175107,,train2,train3,train1,train8,train4,train10,train1,train8,train2,train1,0.002918921,8.538160264
2016-03,2016,3,Glasgow Byres Road,Roadside,256526.91,666936.95,-4.294722015,55.874167,8,40.36521739,0,8.806451613,31,,21.67176,10.25663,6.174359,80.81882539,1012.659379,49.84664457,3.287322593,119.5511904,6.911934757,0.33553942,Rural Areas,3,3.697968458,2.175484591,,train1,train2,train3,train8,train7,train6,train2,train9,train4,train3,0.008033421,9.448460622
2016-03,2016,3,Glasgow Dumbarton Road,Roadside,255030,666608,-4.31844935,55.8707657,0,51.14516129,0,19.12258065,31,,22.02779,10.69954,6.379338,80.85489753,1012.648126,53.25589746,3.214400231,120.1841053,6.886064165,0.35416788,Large Urban Areas,3,3.934667889,2.950869869,,test,train6,train6,train7,train4,test,train7,train5,train6,train2,0.010215927,9.621623143
2016-03,2016,3,Glasgow Great Western Road,Roadside,258007,666651,-4.270936625,55.87203836,0,36.78064516,31,,31,,27.48459,12.29878,6.844817,80.73873439,1012.677475,48.40162546,3.297471464,118.4699229,6.944561595,0.28519566,Large Urban Areas,3,3.60497176,,,train4,test,train10,train10,test,train7,train1,train1,test,test,0.007522473,15.37028264
2016-03,2016,3,Glasgow High Street,Roadside,260014.1,665348.9,-4.23821368,55.86093551,0,38.11935484,1,14.6,7,8.225,27.48627,12.08232,6.826867,80.50023955,1012.701204,50.91937076,3.306713064,117.2553066,6.80002895,0.3417048,Large Urban Areas,3,3.640722154,2.681021529,2.107178297,test,train3,train5,train8,train6,train4,train6,test,test,train2,0.005010073,13.7337869
2016-03,2016,3,Glasgow Kerbside,Kerbside,258713.92,665194.51,-4.258888922,55.85917001,0,67.10322581,31,,31,,31.71115,11.73638,6.829536,80.54447885,1012.685061,48.87807463,3.324331968,118.4279876,6.960809911,0.2007768,Rural Areas,3,4.206232117,,,test,train5,train2,train3,train10,train2,test,train4,train6,train7,0.003820828,286.6771733
2016-03,2016,3,Glasgow Nithsdale Road,Roadside,257886.88,662669.31,-4.270767942,55.83625604,31,,5,11.07307692,31,,18.30284,10.08283,6.141131,80.66822596,1012.694422,65.23022769,3.020388828,120.9323948,6.622002442,0.38569136,Rural Areas,3,,2.40451666,,test,train8,test,train5,train8,test,train7,train7,train3,train8,0.007081626,9.431613068
2016-03,2016,3,Glasgow Townhead,Rest,259692.6,665899.13,-4.24363094,55.86578198,0,28.60322581,0,9.996774194,0,6.641935484,25.42956,10.5857,6.348083,80.54292805,1012.693447,50.04639993,3.270368418,118.0585601,6.93467515,0.3417048,Rural Areas,3,3.353519502,2.30226246,1.89340341,train6,test,test,test,train7,train3,test,train4,train4,train9,0.00823493,286.2007658
2016-03,2016,3,Glasgow Waulkmillglen Reservoir,Rest,252455.25,658157.36,-4.354967932,55.79412004,1,11.00666667,0,7.761290323,31,,9.787962,8.898339,5.479627,82.33335397,1012.678577,96.45526486,2.931751142,125.5085885,6.155879249,0.7183768,Rural Areas,3,2.39850115,2.049148599,,train4,train2,test,train1,test,train4,train7,train1,train7,train3,0.000584924,703.3625679
2016-03,2016,3,Grangemouth,Industrial,293829.88,681020.65,-3.704398944,56.01031895,0,17.03870968,1,8.933333333,9,5.25,16.20508,10.28637,6.357592,80.8408987,1012.625802,18.06238664,3.912727149,107.4335866,6.670192487,0.39348932,Rural Areas,3,2.835487795,2.189789599,1.658228077,test,test,train10,train3,train9,train3,train2,train7,train7,train1,0.002763145,276.6920559
2016-03,2016,3,Grangemouth Moray,Rest,293436.55,681344.72,-3.710832922,56.01314198,0,18.60322581,31,,31,,16.20508,10.28637,6.357592,80.8408987,1012.625802,18.06238664,3.912727149,107.4335866,6.670192487,0.39348932,Rural Areas,3,2.923334996,,,train6,train7,train9,train2,train1,train4,train9,test,train5,train5,0.002763145,58.50815374
2016-03,2016,3,Inverclyde Greenock A8,Roadside,229331.5,675714.7,-4.73442097,55.94407866,6,34.316,6,16.196,23,4.575,11.61316,8.545309,5.226347,80.050443,1012.494695,63.87981461,3.964457482,122.8690779,6.615476068,0.42160896,Other Urban Areas,3,3.535611718,2.784764298,1.520606699,test,train2,train3,test,train3,train5,train7,train10,train7,test,0.003106301,2.984158052
2016-03,2016,3,Inverness,Roadside,265708.85,845668.85,-4.241451007,57.48130795,1,27.49666667,31,,31,,6.714163,8.322395,4.987269,80.53129463,1011.805588,43.60442343,2.938922483,116.9357976,6.545715094,0.30989144,Rural Areas,3,3.314064785,,,train4,train9,train5,test,train8,train5,train4,train2,train3,train8,0.003393486,9.161786596
2016-03,2016,3,Inverness Academy Street,Roadside,266653,845439,-4.225591911,57.47952362,31,,31,,31,,10.37614,8.294503,4.960936,80.42903786,1011.799043,43.50574324,2.860727919,116.3793169,6.574643739,0.29296602,Other Urban Areas,3,,,,train10,train10,train8,test,train1,train9,train8,train6,train4,test,0.002544886,19.54834901
2016-03,2016,3,Inverness Academy Street 1st Floor,Roadside,266653.2,845439.2,-4.225588687,57.47952547,31,,31,,31,,10.37614,8.294503,4.960936,80.42903786,1011.799043,43.50574324,2.860727919,116.3793169,6.574643739,0.29296602,Other Urban Areas,3,,,,test,test,test,train4,train2,train6,test,test,train9,train1,0.002544886,19.26604113
2016-03,2016,3,Lerwick,Rest,445350.77,1139689.93,-1.185318917,60.13922003,0,4.919354839,31,,31,,7.818168,6.285021,3.553609,86.65787652,1009.741041,78.94813174,6.736187252,92.27951113,5.482512722,0.59593668,Rural Areas,3,1.593177392,,,train5,train10,train9,test,train10,test,train7,train2,test,train7,0.000260889,140.2011149
2016-03,2016,3,N Lanarkshire Airdrie Kenilworth Dr,Roadside,277385.6,665831.3,-3.961072478,55.87000076,31,,31,,31,,14.48277,10.45659,6.307819,82.15406828,1012.756653,35.51320578,4.325664444,105.9124908,5.381107071,0.46958004,Other Urban Areas,3,,,,train3,train4,train9,train10,train7,test,train2,train7,train6,test,0.003607977,14.81314762
2016-03,2016,3,N Lanarkshire Chapelhall,Roadside,278168.64,663115.23,-3.94734605,55.84580998,1,35.75666667,15,17.0625,31,,12.20694,10.72488,6.159377,82.28299931,1012.76707,37.48385829,4.053453741,105.0051493,5.545344354,0.4868802,Rural Areas,3,3.576736732,2.836883073,,train1,train5,test,train7,train7,train5,test,train7,train10,test,0.000461791,3.193975307
2016-03,2016,3,N Lanarkshire Coatbridge Sunnyside Rd,Roadside,273054,665234.7,-4.029968166,55.86352174,31,,31,,31,,16.97923,10.09044,6.251932,81.84111117,1012.755515,31.38419919,3.769328862,109.2389506,5.8048834,0.40288616,Other Urban Areas,3,,,,train7,train6,train7,train4,train3,train7,train6,train9,train4,train8,0.003444783,11.55067351
2016-03,2016,3,N Lanarkshire Coatbridge Whifflet,Rest,273674.95,663927.14,-4.019443945,55.85194396,31,,5,11.29615385,31,,17.69104,11.09413,6.609863,81.38622049,1012.768678,35.33151869,3.634523548,108.1449449,5.928342092,0.40193984,Rural Areas,3,,2.4244623,,train10,train3,train1,train1,train6,train2,train6,test,train5,train3,0.004154454,16.13114014
2016-03,2016,3,N Lanarkshire Croy,Roadside,272770.4,675740.3,-4.039443976,55.95777804,3,21.14642857,3,12.62857143,31,,11.95169,9.241319,5.591946,82.30767563,1012.687007,48.02922282,3.787183444,111.6719127,5.856871935,0.55274284,Other Urban Areas,3,3.051471029,2.535961821,,test,train6,train7,test,test,test,train1,test,test,train7,0.001112801,9.039749229
2016-03,2016,3,N Lanarkshire Kirkshaws,Roadside,272522.8,663029.8,-4.037413226,55.84358325,0,55.15483871,0,11.16774194,31,,17.00101,10.8661,6.658315,81.46485149,1012.766356,36.0697718,3.483989905,109.4551576,6.012364301,0.47181432,Other Urban Areas,3,4.010144479,2.413029438,,train2,train9,train7,train6,train9,train4,train9,train5,train3,test,0.005226798,32.05366888
2016-03,2016,3,N Lanarkshire Moodiesburn,Roadside,269929,670386,-4.082340363,55.90894138,0,21.43870968,0,8.135483871,31,,15.28426,10.19931,6.128171,82.65772731,1012.708665,45.71584826,3.736190182,111.9658512,5.822012983,0.51337856,Other Urban Areas,3,3.065198151,2.096235219,,train1,test,train2,train2,test,train2,train9,train3,train5,train8,0.002772129,11.22300763
2016-03,2016,3,N Lanarkshire Motherwell,Roadside,275540.87,656789.09,-3.986388952,55.78833303,31,,0,14.20322581,31,,21.31661,11.20603,6.850164,82.00305227,1012.819871,45.73897543,3.124563463,108.4772466,5.886588855,0.40449256,Rural Areas,3,,2.653469108,,train10,test,train9,test,test,train6,train3,train5,test,train2,0.002828871,81.53773543
2016-03,2016,3,N Lanarkshire Shawhead Coatbridge,Roadside,273411,662997,-4.023223128,55.84352272,3,32.82142857,0,10.56451613,31,,21.39296,12.46955,6.940497,81.34966607,1012.775941,36.25674701,3.369857904,108.4620537,6.094579,0.43164236,Other Urban Areas,3,3.491081612,2.357500851,,train2,test,train2,train6,train1,train7,train4,train8,train4,train7,0.000753627,19.7483369
2016-03,2016,3,N Lanarkshire Uddingston New Edinburgh Rd,Roadside,269145.6,661499.7,-4.09057047,55.82893997,31,,31,,31,,21.32629,12.36038,7.028868,81.59947261,1012.771846,41.86292996,2.85157729,113.4979256,6.359117782,0.48949332,Large Urban Areas,3,,,,train3,train9,train7,train6,train1,train10,train4,train10,train6,test,0.003157591,19.34483261
2016-03,2016,3,North Ayrshire Irvine High St,Kerbside,232142,638892,-4.666789703,55.61457831,1,29.24333333,0,13.02903226,0,6.577419355,10.71581,9.002791,5.783385,79.82189839,1012.669785,55.58983778,4.440674376,117.155948,6.771663843,0.42807048,Other Urban Areas,3,3.375651627,2.567180118,1.883642473,train9,train1,train3,train2,train4,test,test,train8,test,train7,0.002991044,142.8479924
2016-03,2016,3,Paisley Gordon Street,Roadside,248316.83,663615.52,-4.423958026,55.84183603,0,30.51290323,0,14.30322581,31,,16.34148,9.722612,5.995084,81.71427152,1012.619302,73.27455045,3.180196013,125.0626747,6.949610658,0.41206472,Rural Areas,3,3.418149651,2.660485093,,train8,test,train10,train4,test,test,train5,train10,train3,train1,0.004200029,13.50052293
2016-03,2016,3,Peebles,Rest,324814.65,641087.92,-3.19652692,55.65747203,0,6.722580645,31,,31,,3.912285,8.014412,5.04627,83.42153495,1012.843604,49.77891736,3.144250825,90.38247734,5.258882227,0.59898608,Rural Areas,3,1.905472105,,,train5,train2,train6,train8,train1,train3,train3,train1,train3,train9,0.001103301,325.8272606
2016-03,2016,3,Perth Atholl Street,Roadside,311577.28,723931.02,-3.434181973,56.39932696,0,49.58709677,0,24.32258065,31,,11.1477,9.786637,5.740034,80.81918988,1012.483442,22.04824549,2.682453228,116.9021947,6.122141037,0.55447192,Rural Areas,3,3.903730654,3.191405164,,train5,train8,train3,train2,test,test,train3,train5,train9,train2,0.005320228,7.541035454
2016-03,2016,3,Perth Crieff,Roadside,286363,721614,-3.841475287,56.37312625,1,25.93666667,0,18.87096774,31,,4.807431,9.33672,5.470466,81.59454124,1012.61516,52.63701255,3.59825072,127.426791,5.565383414,0.5049102,Rural Areas,3,3.255657669,2.937624643,,train7,train9,train6,train5,train2,train2,train10,train5,test,train6,0.003052405,8.087489738
2016-03,2016,3,Perth High Street,Roadside,311680.93,723624.9,-3.432400001,56.39659701,0,28.45806452,0,12.35806452,31,,11.1477,9.786637,5.740034,80.81918988,1012.483442,22.04824549,2.682453228,116.9021947,6.122141037,0.50541864,Rural Areas,3,3.348431583,2.514308847,,train8,train8,test,train3,train6,train8,train10,train10,train10,train4,0.005320228,319.1852353
2016-03,2016,3,Renfrew Cockels Loan,Roadside,250464,665933,-4.390979228,55.86331069,0,36.66774194,0,12.27741935,31,,18.4888,11.0956,6.33919,81.40456966,1012.615716,58.07960453,3.321029198,121.9516964,6.671699783,0.43112956,Large Urban Areas,3,3.601897402,2.50776175,,train8,train3,train8,train2,test,train2,train4,test,train5,train4,0.000807133,26.41545805
2016-03,2016,3,Renfrew Inchinnan Road,Roadside,250567,667558.1,-4.390231474,55.87793123,31,,31,,31,,15.94513,10.21566,6.191491,81.25999508,1012.603236,54.55126578,3.23738805,121.5844321,6.737562979,0.44897516,Large Urban Areas,3,,,,train10,train4,train1,test,train6,train4,train2,train3,train5,train2,0.004427658,10.64165285
2016-03,2016,3,South Ayrshire Ayr Harbour,Roadside,233617.25,622746.05,-4.633680996,55.47016203,31,,31,,31,,9.210422,8.208325,5.129355,79.10726973,1012.726996,51.216559,4.47306319,119.5099234,6.696518864,0.33868468,Rural Areas,3,,,,train8,train5,train2,train8,train2,train3,train9,train8,train2,test,0.003313132,314.4604262
2016-03,2016,3,South Ayrshire Ayr High St,Roadside,233720.43,622114.8,-4.631672929,55.46453104,0,19.21935484,31,,31,,9.210422,8.208325,5.129355,79.10726973,1012.726996,51.216559,4.47306319,119.5099234,6.696518864,0.33868468,Rural Areas,3,2.955917836,,,test,train1,train7,train3,train3,train10,train5,train9,train7,train7,0.003313132,20.8577063
2016-03,2016,3,South Lanarkshire Blantyre,Roadside,268916,657605,-4.09235526,55.79390732,31,,31,,31,,14.09675,10.47414,6.622684,81.91762961,1012.796577,42.14254758,2.797233248,115.5039851,6.137683251,0.48719716,Other Urban Areas,3,,,,train8,train9,test,train1,train7,train1,test,train4,test,train1,0.004507435,11.11249079
2016-03,2016,3,South Lanarkshire Cambuslang,Kerbside,264319,660519,-4.167073146,55.81880163,0,44.34516129,0,15.26451613,31,,15.12313,10.21219,6.363093,81.50098762,1012.758868,47.40002964,2.718048973,118.0789115,6.545939918,0.4384648,Large Urban Areas,3,3.7920036,2.725530928,,test,train4,train4,train9,train3,train6,test,train6,train8,train9,0.003260058,7.878133166
2016-03,2016,3,South Lanarkshire East Kilbride,Roadside,264384.55,655669.44,-4.163610983,55.775278,0,42.49677419,0,17.00322581,31,,15.64167,10.40251,6.429307,81.83622434,1012.785501,60.85038577,3.527174117,116.699387,5.641941481,0.50395484,Rural Areas,3,3.749428172,2.833403079,,train5,train7,train10,train9,train1,train9,test,test,train4,train4,0.003947225,4.914430819
2016-03,2016,3,South Lanarkshire Hamilton,Roadside,272298,655289,-4.037365263,55.77401709,0,43.75806452,31,,31,,17.12927,10.89328,6.480418,82.16596249,1012.819754,41.23810847,2.546269554,113.7541656,6.156859138,0.47608312,Other Urban Areas,3,3.778675928,,,test,train7,train9,test,train5,train2,train10,train3,train8,train3,0.002328911,6.74367849
2016-03,2016,3,South Lanarkshire Lanark,Kerbside,288427.04,643700.54,-3.775657996,55.67393599,0,29.08387097,0,13.18709677,0,7.061290323,8.013946,9.228241,5.546964,85.25434318,1012.892516,40.17976085,5.139494145,98.8322332,4.977727436,0.56722328,Rural Areas,3,3.370183758,2.579238834,1.9546278,train6,test,test,test,train6,test,train1,train6,train1,train10,0.002411705,3.606069758
2016-03,2016,3,South Lanarkshire Raith Interchange 2,Roadside,271063.1,658087,-4.058362489,55.7988131,21,34.72,31,,31,,21.05006,12.42551,6.983053,81.48351962,1012.797754,41.65196128,2.536969749,112.8137852,6.411820967,0.4576868,Rural Areas,3,3.54731589,,,test,train10,train1,train5,train2,test,train6,test,train1,train4,0.000333639,35.00838955
2016-03,2016,3,South Lanarkshire Rutherglen,Roadside,261113.75,661690.5,-4.218786034,55.82840798,0,56.26129032,0,17.87419355,31,,18.3892,10.87698,6.511906,80.92059309,1012.734234,49.65139824,2.882078591,119.2485775,6.636275698,0.38230592,Rural Areas,3,4.030006738,2.883357971,,test,train9,train2,train6,train6,test,train4,train10,train2,train6,0.004235152,10.42225267
2016-03,2016,3,South Lanarkshire Uddingston,Roadside,269657,660305.7,-4.081839503,55.81835747,0,33.32580645,0,10.23870968,0,4.716129032,16.85682,10.34078,6.420775,81.64528447,1012.778215,42.57206829,2.770009365,113.815795,6.35199945,0.53282,Other Urban Areas,3,3.506332065,2.326175604,1.550988343,train3,train2,test,train8,train1,train7,train9,train6,train4,train7,0.003012259,7.476428806
2016-03,2016,3,Stirling Craig's Roundabout,Roadside,279955,693012,-3.932178761,56.11471995,0,24.2483871,0,12.52258065,31,,12.61562,9.427147,5.659653,81.59715934,1012.635334,37.98717457,3.604884974,121.1148191,6.755714501,0.39266136,Other Urban Areas,3,3.188350104,2.527533466,,train9,test,train1,train4,train5,test,train9,train7,train4,train5,0.003784422,23.09566273
2016-03,2016,3,West Dunbartonshire Clydebank,Roadside,249721.28,672046.49,-4.406231024,55.91795997,0,24.97741935,0,8.448387097,0,5.138709677,14.92795,9.839438,5.967862,82.61932418,1012.572838,54.10701293,3.791786478,124.4770371,6.092956156,0.55467564,Rural Areas,3,3.217972191,2.133975547,1.636802012,train2,train1,test,train4,train9,train1,train7,train1,test,train5,0.00327771,29.32199251
2016-03,2016,3,West Dunbartonshire Glasgow Road,Roadside,240234.67,675198.79,-4.559729998,55.94319696,0,21.12258065,31,,31,,10.75688,8.948269,5.428979,82.82129743,1012.546232,57.64870486,2.99490747,127.0461676,6.450504228,0.37511136,Rural Areas,3,3.050342641,,,train4,test,train5,train3,train9,train4,test,train3,test,train10,0.00406473,5.975355394
2016-03,2016,3,West Lothian Broxburn,Roadside,308314.04,672230.25,-3.469190056,55.93435701,0,35.79032258,1,16.60666667,31,,14.64562,11.25988,6.40962,80.71062334,1012.556717,29.49571231,3.839429002,101.5431838,5.940859776,0.46665632,Rural Areas,3,3.577677538,2.809804221,,train10,train8,train3,test,train3,test,train7,train7,train9,train6,0.002236293,7.21704839
2016-03,2016,3,West Lothian Linlithgow High Street 2,Roadside,300419.7,677120.9,-3.597309839,55.97670967,0,31.56129032,0,15.19354839,31,,13.99723,10.37993,6.012998,81.84024344,1012.583873,25.91883957,4.338874245,105.7871343,6.132132613,0.46487612,Other Urban Areas,3,3.45193138,2.72087089,,train7,train3,train5,test,test,train3,train4,train3,train2,train4,0.001483517,6.003113457
2016-03,2016,3,West Lothian Newton,Roadside,309258,677728.99,-3.45593904,55.98392504,0,22.80645161,1,17.24666667,31,,11.30249,11.79362,6.21874,81.26084941,1012.534595,31.87523349,4.818150352,102.0447728,5.719406959,0.46631688,Rural Areas,3,3.127043461,2.847618888,,train6,train6,train7,train4,test,train7,train2,train8,train8,train10,4.42E-05,5.755533574
2016-04,2016,4,Aberdeen Anderson Dr,Roadside,392504.39,804189.75,-2.125446985,57.12856696,0,24.06666667,3,13.43333333,30,,15.96019,10.55266,6.172001,78.44319406,1011.121797,99.58060834,5.402023455,157.419881,5.865666861,0.47397328,Large Urban Areas,4,3.180827757,2.59773918,,test,train4,test,train9,train7,train5,train8,test,train3,test,0.005123445,14.49298793
2016-04,2016,4,Aberdeen Errol Place,Rest,394395.8,807391.98,-2.094278044,57.15736002,0,14.73666667,0,11.23,8,5.927272727,19.87877,10.31663,5.94299,78.67584141,1011.112935,105.7198972,5.473514161,159.6921909,6.071536512,0.38864824,Large Urban Areas,4,2.690338719,2.418588769,1.779564196,train9,train6,train2,train9,train2,train10,train8,train2,test,test,0.006877316,76.62294631
